Name,Phone,Email,Address,Latitude,Longitude,Helps
"Adams, Brown and Gates",(822)8661528x21266,diaznicole@example.com,"93772 David Street Suite 001, Gainesville, FL",29.639991,-82.39443,"Clothing,Rescue,Sandbags,School,Life Skills,Food Packs"
Coleman-Smith,6855555408x60298,zwilliams@example.com,"137 Clayton Lodge Apt. 537, Gainesville, FL",29.668809,-82.3182,"Housing,Lost & Found,Recovery,Training,Follow-up"
Gutierrez-Hardin,819.546.1742x08534,russell03@example.net,"210 Stevens Orchard Apt. 499, Gainesville, FL",29.668668,-82.372413,"Alerts,Mental Health,Vaccination,Food Packs,Babysitting"
Lee-Luna,+16038963074,williamsmark@example.org,"65759 Ramsey Throughway Apt. 510, Gainesville, FL",29.657039,-82.317427,"Medical,Financial Aid,Emergency Kits"
Goodman-Diaz,(395)4461849x5307,tthomas@example.com,"713 Mary Point, Gainesville, FL",29.655254,-82.364677,"Training,Financial Aid,Resource Sharing,Life Skills,Health Kits"
"Johnson, Morales and Jimenez",372.492.2457x3328,rodneywright@example.org,"057 Charles Ridge, Gainesville, FL",29.669629,-82.302462,"Remapping,Temporary Schools,Childcare,Language Help,Hazard Map,Awareness,Equipment"
Cantrell-Daniels,5534470348x6277,williamskelly@example.net,"9714 Anthony Meadows Suite 633, Gainesville, FL",29.646889,-82.333666,"Trauma Support,Drills,Sandbags,Clean-up,Communication,Power Supply"
Baxter-Charles,+19203740901x45426,bryanmorris@example.com,"6653 Oconnell Stream, Gainesville, FL",29.670642,-82.333681,"Blood Donation,School,Coordination,Housing,Drills"
Washington LLC,0016489048002x27650,avilakristy@example.net,"22435 Grimes Ridge Apt. 807, Gainesville, FL",29.654798,-82.350404,"Assessment,Toolkits,Construction,Documentation,Transport"
"Lee, Watkins and Pierce",0013207057888,castrojonathon@example.com,"952 Joseph Greens Suite 925, Gainesville, FL",29.666613,-82.331937,"Lost & Found,Evacuation,Financial Aid,Assessment"
"Singleton, Grant and Page",496.798.7827x4094,vfrancis@example.com,"1383 Shannon Lane Apt. 914, Gainesville, FL",29.655721,-82.345098,"Psych Support,Lost & Found,Vaccination,Food Packs"
Murray Ltd,0017505715109,holmesamanda@example.net,"9502 Davis Divide, Gainesville, FL",29.642802,-82.378898,"Temporary Schools,Sandbags,Helpline,Insurance,Shelter"
"Turner, Reyes and Williams",+16406391596x79122,john33@example.com,"8018 Eric Hill, Gainesville, FL",29.629375,-82.379466,"Information,Resource Sharing,Debris Removal,Relocation"
Hall and Sons,(360)7530861,qnorris@example.org,"8475 Michael Light, Gainesville, FL",29.665238,-82.35325,"Hazard Map,Debris Removal,Training,Alerts,Shelter,Drills"
"Crawford, Gibson and Quinn",(849)4302794,sheltonkristina@example.com,"69734 Jones Loop, Gainesville, FL",29.670408,-82.38675,"Water,Shelter,Collection"
Huffman PLC,687.744.5814x07988,stanleyrobert@example.com,"6254 Carlos Roads Apt. 336, Gainesville, FL",29.649467,-82.379713,"Transport,Sanitation,Legal,Documentation,Vaccination,Relocation,Trauma Support"
Stewart-Williams,5203025286x4323,thorntonbrooke@example.org,"102 Natalie Crescent Suite 954, Gainesville, FL",29.634638,-82.323773,"Relief,Sanitation,Food Packs"
Hawkins LLC,(461)6038465,alan75@example.net,"1326 Hanson View, Gainesville, FL",29.630582,-82.376839,"Clothing,Medical,Debris Removal,Resource Sharing,Financial"
Owens-Pittman,328.981.9333x485,robert99@example.org,"48528 Sheppard Lakes Suite 535, Gainesville, FL",29.640453,-82.395388,"Support,Supplies,Relocation,Insurance,Mental Health"
Allen LLC,0015423291712x66955,annettestevens@example.org,"5227 Andrade Center, Gainesville, FL",29.658263,-82.336173,"Childcare,Needs Assessment,Debris Removal,Power Supply"
Keller and Sons,4216586984,tbarrera@example.net,"9349 Lynn Lane, Gainesville, FL",29.633801,-82.322589,"Crowd Control,Translation,Equipment,Blood Donation,Financial Aid"
Brock-Patel,(456)4929131,ortizmichael@example.org,"634 Hopkins Hills, Gainesville, FL",29.621224,-82.328682,"Rescue,Food,Housing,Helpline,Food Packs,School,Follow-up"
"Walters, Garcia and Rodriguez",242.609.6558x46617,millerbrenda@example.net,"6022 Valdez Mount, Gainesville, FL",29.622017,-82.35076,"Language Help,Counseling,Medication,Recruitment"
"Mcmillan, Meyer and Swanson",+16386086983x0926,teresafitzpatrick@example.net,"885 Megan Mills Suite 511, Gainesville, FL",29.647172,-82.398239,"Drills,Documentation,Training,Hazard Map"
Grant-Evans,721.326.2854x31144,katherinepham@example.org,"1590 Michael Brook, Gainesville, FL",29.675163,-82.302149,"Health Kits,Triage,Insurance,First Aid,Collection"
Rich Ltd,0018486553482x2688,frice@example.net,"6652 Virginia Flat, Gainesville, FL",29.679793,-82.330523,"Follow-up,Insurance,Awareness,Sanitation"
Schultz-Burns,+16898846390,wyatt14@example.com,"87399 Kelly Junctions Suite 623, Gainesville, FL",29.67083,-82.345544,"Clean-up,Blood Donation,Helpline,Water,Supplies,Support"
"Harvey, Maynard and Williams",6828926726,jasondawson@example.net,"9489 Laura Station Apt. 294, Gainesville, FL",29.637522,-82.365603,"Recruitment,Sanitation,Remapping,Clearance"
"Pope, Lewis and Wolf",5406202375x41393,emiller@example.org,"45528 Payne Stravenue Suite 783, Gainesville, FL",29.635865,-82.302345,"Translation,Medical,Job Aid"
"Mcbride, Good and Lee",6009896549,ujames@example.org,"373 Donald Summit Apt. 816, Gainesville, FL",29.642651,-82.335911,"Financial,Remapping,Toolkits,Awareness"
"Jennings, Wolfe and Perez",8484773842,lisa31@example.com,"104 Stacy Trail Apt. 118, Gainesville, FL",29.6354,-82.342341,"Job Aid,Legal,Documentation"
Jordan PLC,(939)8342253x37130,jacqueline69@example.org,"751 Seth Locks, Gainesville, FL",29.649169,-82.382144,"Sandbags,Power Supply,Security,Sanitation"
Moore-Wilson,6828702780,mitchelljoshua@example.com,"771 Heidi Dale, Gainesville, FL",29.657884,-82.388578,"Recruitment,Job Aid,Waste Removal,Temporary Schools,Babysitting,Food Packs,Clearance"
Reed and Sons,434.449.2898x48875,charlesfitzpatrick@example.com,"356 Miller Bypass Apt. 441, Gainesville, FL",29.627709,-82.349188,"Crowd Control,First Aid,Coordination,Training,Childcare,Medical"
Hansen and Sons,0019824236771x84415,ycollins@example.net,"9160 Gina Mountains Apt. 508, Gainesville, FL",29.660687,-82.305744,"Rebuild,Life Skills,Recovery,Shelter,Medication,Language Help"
"Rios, Alvarez and Johnson",480.893.7058x241,amandaali@example.com,"53382 Christopher Extension Apt. 732, Gainesville, FL",29.670347,-82.334759,"Temporary Shelter,Vaccination,Follow-up"
Howell-Brown,+14492267322x6426,laurabarker@example.net,"07286 Pam Ports, Gainesville, FL",29.669268,-82.309362,"Sanitation,Transport,Hazard Map,Needs Assessment,Power Supply"
"Jones, Delgado and Wilson",9175615348,john69@example.com,"06394 James Key, Gainesville, FL",29.658752,-82.367946,"Collection,Babysitting,Triage,Medical"
Frank LLC,+16383621028,patrick33@example.org,"08863 Smith Ville Apt. 818, Gainesville, FL",29.627529,-82.387901,"Financial,Job Aid,Coordination"
Rodriguez PLC,6073885247,hicksscott@example.com,"592 Michelle Junctions Suite 932, Gainesville, FL",29.647845,-82.324619,"Hygiene,Psych Support,Temporary Shelter,Shelter,Drills"
"Wang, Case and Buchanan",508.476.3458x484,tacevedo@example.com,"63053 Larry Creek Suite 423, Gainesville, FL",29.6488,-82.381117,"Training,Sanitation,Blood Donation,Recruitment"
"Delgado, James and Garrett",9874188936x03925,kimann@example.org,"114 Gary Squares Apt. 338, Gainesville, FL",29.636918,-82.367948,"Water,Collection,Toolkits,Relocation,Temporary Schools"
Everett PLC,407.888.9927,sdavidson@example.org,"74590 Luke Path, Gainesville, FL",29.67173,-82.330447,"Clothing,Life Skills,Lost & Found"
Larson Inc,(265)5907623,chaneyariel@example.com,"33227 Angela Manor, Gainesville, FL",29.635513,-82.370333,"Transport,School,Security"
Santana-Patel,(755)6786166x1968,msanchez@example.org,"0604 Lisa Oval Suite 118, Gainesville, FL",29.643358,-82.320453,"Helpline,Recruitment,Remapping,Drills,Cash Aid,Coordination"
Martinez and Sons,(315)8645065x51671,kennedydesiree@example.com,"8184 Lee Meadows, Gainesville, FL",29.670995,-82.321335,"Communication,Translation,Hygiene,Mental Health"
Stephens LLC,693.577.2636x002,raymondfox@example.net,"91909 Diane Center, Gainesville, FL",29.624274,-82.329173,"Training,Communication,Remapping,Translation"
Warren Inc,6946443530x844,aaronfreeman@example.net,"028 Jared Coves Apt. 843, Gainesville, FL",29.672774,-82.325078,"Clothing,Triage,Awareness"
Collins LLC,2607861162,youngjacob@example.net,"723 Duran Crossing, Gainesville, FL",29.620139,-82.308509,"Hazard Map,Crowd Control,Shelter,Collection,Recovery,Communication,Counseling"
Young-Hughes,+14514599243x8801,williamsjennifer@example.net,"1445 Watson Burgs Suite 746, Gainesville, FL",29.633585,-82.339429,"Toolkits,Psych Support,Shelter,Crowd Control,Needs Assessment"
"Johnson, Brown and Garcia",0017936421034,stephen51@example.org,"33863 Dustin Hill Suite 976, Gainesville, FL",29.622156,-82.326282,"Remapping,Crowd Control,Counseling,Translation,Emergency Kits"
Hardy-Stewart,675.256.5366,jackcurtis@example.org,"5238 Watts Mountains, Gainesville, FL",29.660903,-82.37281,"Support,Hygiene,Water,Food"
Patel Group,520.216.4991x6326,michael41@example.org,"599 Mckenzie Junctions, Gainesville, FL",29.63775,-82.307549,"Medical Camps,Pet Care,Contacts,Counseling,Equipment,Sandbags,Legal"
"Faulkner, Hanna and Baker",(672)3041050x619,reedsabrina@example.com,"76147 Stephanie Crossing Apt. 210, Gainesville, FL",29.659896,-82.329427,"Training,Rebuild,Childcare,Debris Removal,Contacts"
Anderson-Herrera,3024314858,ronaldwebb@example.org,"20730 Day Roads Suite 403, Gainesville, FL",29.620453,-82.327598,"Recovery,Remapping,Insurance,Documentation"
Flores-Morales,(523)6589958x897,grantdanny@example.com,"83641 David Underpass Suite 628, Gainesville, FL",29.663752,-82.370352,"Legal,Language Help,Temporary Shelter"
Harris-Robinson,(497)4544193,claytongeorge@example.net,"0491 Glover Summit Suite 228, Gainesville, FL",29.660436,-82.300703,"Water,Triage,Resource Sharing,Awareness,Helpline,Cash Aid,Insurance"
Mcfarland PLC,963.289.2898,emily18@example.net,"1699 Kristie Highway, Gainesville, FL",29.6557,-82.392248,"Health Kits,Vaccination,Financial,Clearance,Hazard Map,Debris Removal,Financial Aid"
Crawford Inc,0015032636008x7994,christineromero@example.net,"42732 Reyes Cove, Gainesville, FL",29.677706,-82.329517,"Follow-up,Damage Reports,Power Supply,Language Help,Food Packs"
Roberts-Mckinney,9197704928,jackie09@example.net,"694 White Lodge, Gainesville, FL",29.632399,-82.34481,"Sanitation,Waste Removal,Job Aid,Contacts"
"Brown, Holmes and Turner",7659457784x6053,jmorales@example.com,"502 Hernandez Summit, Gainesville, FL",29.622148,-82.378147,"Needs Assessment,Hazard Map,Debris Removal,Housing,Damage Reports,Mental Health,Coordination"
Smith Inc,0013249480164,jjones@example.com,"76166 Emily Union Apt. 255, Gainesville, FL",29.675111,-82.37085,"Equipment,Security,Trauma Support,Waste Removal,Coordination,Remapping"
"Patterson, Levine and Martinez",7108788462,bmartinez@example.org,"3965 Thomas Shoal Suite 602, Gainesville, FL",29.638777,-82.346315,"Medical,Helpline,Assessment,Awareness,Babysitting,Equipment"
Jackson-Garcia,217.490.6356,angelamiller@example.com,"75260 Jose Shores Apt. 091, Gainesville, FL",29.65318,-82.31893,"Shelter,Medical Camps,Information,Equipment"
Sweeney-Anderson,508.466.7401x46448,hstrickland@example.net,"94622 William Shoal, Gainesville, FL",29.667224,-82.361026,"Water,Hygiene,Information,Rebuild,Emergency Kits"
Davis Inc,217.825.4736x87072,larryhicks@example.net,"30054 Chad Avenue Apt. 420, Gainesville, FL",29.655886,-82.393029,"School,Health Kits,Sanitation,Documentation,Alerts,Helpline,Transport"
"Foley, Neal and Harris",5955432887x614,christy28@example.com,"6788 Wilson Green Apt. 376, Gainesville, FL",29.622027,-82.315861,"Collection,Recruitment,Assessment,Blood Donation"
Hamilton-Thornton,0019239556642x523,sarah91@example.org,"2097 Jason View, Gainesville, FL",29.637405,-82.360081,"Legal,Food,Water"
Robbins-Gordon,422.690.7118,david54@example.net,"358 Vanessa Lock, Gainesville, FL",29.627126,-82.304034,"Hygiene,Insurance,Medication,Triage,Debris Removal,Toolkits,Counseling"
Mann-Weaver,2338165849x0129,rossmelinda@example.net,"4131 Derek Dale, Gainesville, FL",29.629759,-82.39671,"Recruitment,Job Aid,Financial,Clearance"
"Cook, Thomas and Wilson",4206064247x4111,powellcarlos@example.net,"4077 Hector Rapids, Gainesville, FL",29.673193,-82.356599,"Contacts,Life Skills,Shelter,Recruitment,Clean-up,School,Helpline"
"Wilson, Deleon and Harmon",+14526285936x6212,hmurphy@example.com,"987 Andrew Key, Gainesville, FL",29.664763,-82.350244,"Financial,Resource Sharing,Rebuild"
"Morgan, Jones and Williams",+12994108841x43012,jennagrant@example.org,"20781 Francis Squares Suite 451, Gainesville, FL",29.622692,-82.336965,"Job Aid,Insurance,Life Skills,Transport,Food"
Matthews-Kelly,6129872319x126,benitezkaylee@example.org,"8434 Franco Knolls Suite 840, Gainesville, FL",29.634289,-82.354909,"Information,Equipment,Supplies,Financial,School,Support"
Ryan and Sons,+13639335359x572,jorge63@example.net,"9592 Isaac Circles, Gainesville, FL",29.627233,-82.36785,"Follow-up,Supplies,Assessment,Mental Health"
Mahoney-Thomas,4959892016,janet93@example.com,"74144 Andrew Motorway Suite 440, Gainesville, FL",29.654333,-82.350045,"Support,Toolkits,Legal,Debris Removal,Emergency Kits,Equipment,Communication"
Peterson PLC,0018716128491x3059,vgonzalez@example.net,"93409 Brittany Alley, Gainesville, FL",29.620932,-82.364258,"Insurance,Rescue,Communication,Transport,Collection,Helpline,Sandbags"
"Johnson, Hall and Owens",+12584217037x2552,micheallane@example.org,"526 Brian Rue Suite 091, Gainesville, FL",29.675878,-82.372509,"Rebuild,Power Supply,Debris Removal,Damage Reports,Job Aid"
Jennings-Parker,6973875249,patrick64@example.com,"0263 Smith Shore, Gainesville, FL",29.639226,-82.330709,"Medication,Evacuation,Financial,Health Kits,Alerts,Job Aid"
Hardy Group,+14918312988,sierralee@example.com,"628 Simpson Circle Apt. 825, Gainesville, FL",29.65423,-82.33338,"Temporary Schools,Blood Donation,Coordination,Financial Aid,Waste Removal"
"Harmon, Salas and Sanders",+19418549064,katherine18@example.org,"034 Larry Well, Gainesville, FL",29.635378,-82.310784,"Mental Health,Information,Psych Support,Insurance,Recruitment,Medication,Follow-up"
Moody-Harvey,0018023648727,brandonsimpson@example.org,"21367 Mitchell Viaduct, Gainesville, FL",29.66341,-82.333848,"Remapping,Water,Food,Trauma Support,Medical Camps,Hygiene"
Thompson-Clark,0016447377900x421,billy01@example.net,"6275 Bryan Isle, Gainesville, FL",29.65798,-82.342837,"Sandbags,Hygiene,Evacuation,Financial"
Trujillo LLC,(440)7839588,hopkinsmichelle@example.org,"164 Tammy Cliff Suite 020, Gainesville, FL",29.649516,-82.376456,"Mental Health,Psych Support,Temporary Shelter,Supplies"
Velez-Estes,0016419200993x752,hillmelanie@example.com,"91803 Charles Route Apt. 633, Gainesville, FL",29.624145,-82.374344,"Waste Removal,Training,Rescue,Food,Temporary Shelter,Financial"
Garcia-Patterson,0018854061065x0258,gmullins@example.org,"293 Regina Pines, Gainesville, FL",29.646361,-82.342624,"Power Supply,Support,Translation,Contacts"
Suarez-Dominguez,(718)3502721x471,gallowaynathan@example.org,"31072 Beard Key, Gainesville, FL",29.676068,-82.328369,"Pet Care,Sandbags,Life Skills,Debris Removal,Damage Reports,Waste Removal,Toolkits"
Johnson PLC,9797901833x6982,kstewart@example.net,"5045 Reeves Spur Suite 525, Gainesville, FL",29.622821,-82.388677,"Transport,Legal,Remapping,Helpline,First Aid,Information,Emergency Kits"
Bradley PLC,0018375864729x06112,fthompson@example.net,"799 Flores Lock, Gainesville, FL",29.6645,-82.352824,"Childcare,Language Help,Life Skills,Power Supply,Blood Donation,Remapping,Medical Camps"
"Davies, Gordon and Randall",5408515223x1059,mburgess@example.org,"93783 William Courts Apt. 356, Gainesville, FL",29.676372,-82.369108,"Emergency Kits,Hazard Map,Life Skills"
York-Mcguire,0015807800073,hernandeznathan@example.org,"70184 Atkinson Keys, Gainesville, FL",29.676374,-82.399443,"Awareness,Clothing,Psych Support,Medication,Trauma Support"
Ray Ltd,(957)5219735x70842,kelseyblack@example.org,"1738 Ruiz Walk, Gainesville, FL",29.639093,-82.323765,"Helpline,Collection,Trauma Support,Recovery"
Reyes LLC,0016492689441x85555,jmiranda@example.com,"4947 Jordan Lights Apt. 505, Gainesville, FL",29.673345,-82.336442,"Health Kits,Recruitment,Supplies,Follow-up,Remapping"
"Garcia, Glover and Hansen",0014689584092x8763,fsummers@example.net,"153 Phillips Ports, Gainesville, FL",29.658965,-82.366219,"Rescue,Cash Aid,Sanitation"
Heath-Elliott,802.454.1684x545,marissa92@example.net,"8068 Miller Cliffs, Gainesville, FL",29.643726,-82.363718,"Temporary Shelter,Support,Relief"
Hernandez Inc,5934062241,ohamilton@example.org,"5628 Norma Row, Gainesville, FL",29.670974,-82.345998,"Medication,Insurance,Food,Information,Communication,Damage Reports,Toolkits"
"Stewart, Hall and Schmidt",0017636817331x7193,cynthiadavis@example.net,"55481 Jeffrey Corner Apt. 276, Gainesville, FL",29.642018,-82.309948,"Childcare,Clearance,Recruitment,Helpline,Cash Aid"
"Wagner, Reeves and Schmitt",+12477644001,dcallahan@example.org,"77321 Helen Spurs Suite 713, Gainesville, FL",29.638912,-82.317894,"Life Skills,Hazard Map,Construction,Transport,Health Kits"
"Jones, Russell and Williams",0016657409119x233,youngcourtney@example.net,"3841 Davis Dam, Gainesville, FL",29.670948,-82.330586,"Alerts,Food Packs,Coordination,Trauma Support"
Larsen-Fowler,5034683153,castilloerin@example.org,"640 Jones Mills, Gainesville, FL",29.676985,-82.335978,"Contacts,Rebuild,Cash Aid,Support,Counseling,Hazard Map,Shelter"
"Vasquez, Lopez and Scott",5617243900,philipcollier@example.com,"1852 Wheeler Gardens Apt. 915, Gainesville, FL",29.637835,-82.351095,"Insurance,Waste Removal,Assessment,Clearance,Debris Removal,Resource Sharing"
Russell-Lopez,0014062564514,david07@example.org,"2555 Shane Knolls Apt. 620, Gainesville, FL",29.649134,-82.372572,"Food,Sandbags,Food Packs,Emergency Kits,Trauma Support,Evacuation"
"Stanley, Sanchez and Wright",(926)3996793x50339,cnguyen@example.net,"290 Patrick Mission Suite 469, Gainesville, FL",29.620035,-82.303967,"Blood Donation,Water,Cash Aid,Collection,Legal,First Aid"
Gillespie Group,(688)2122520x6297,srobinson@example.net,"960 Donna Neck, Gainesville, FL",29.628208,-82.310854,"Job Aid,Relief,Follow-up,Transport,Vaccination"
"Delacruz, Gallagher and Malone",(362)7024333x8088,donald45@example.net,"9403 Schwartz Hollow, Gainesville, FL",29.638269,-82.349513,"Life Skills,Recovery,Training,Hygiene,Assessment,Lost & Found,Equipment"
Mckenzie-Roberts,(434)5578151x93586,patrickperkins@example.net,"42725 Mcdonald Mountains, Gainesville, FL",29.655485,-82.387979,"Relocation,Damage Reports,Emergency Kits,Clean-up,Language Help,Temporary Schools,Security"
"Davies, Bates and Gonzalez",+15585178302,milesjody@example.com,"33706 Bradley Corners, Gainesville, FL",29.675152,-82.333637,"Rescue,Health Kits,Childcare,Relief,Security"
"Miller, Newman and Foster",0018273930007x3666,hcraig@example.com,"0114 Elizabeth Green, Gainesville, FL",29.627941,-82.39801,"Clothing,Clean-up,Trauma Support,Triage"
"Miller, Glass and White",0014134091147x775,travis47@example.net,"2402 Kristen Mount Apt. 123, Gainesville, FL",29.622785,-82.398572,"Shelter,Insurance,Helpline"
Hoffman-Parker,+18774666454x136,garrett45@example.net,"781 Ward Parks Suite 050, Gainesville, FL",29.630087,-82.354617,"Toolkits,Rebuild,Lost & Found,Housing"
Harper Group,263.696.2439x88775,dunnjamie@example.net,"24389 Diane Summit Suite 878, Gainesville, FL",29.657172,-82.367402,"Triage,Temporary Schools,Water"
Gray LLC,509.383.3713x3029,ljefferson@example.net,"81173 Steven Curve Apt. 005, Gainesville, FL",29.676342,-82.338452,"Communication,Contacts,Insurance,Rebuild,Clothing,Housing"
Henderson-Burgess,287.603.8547x676,liushelby@example.com,"3500 Nicole Springs Apt. 824, Gainesville, FL",29.642593,-82.384075,"Awareness,Contacts,Hazard Map,Security"
"Tran, Sanchez and Pearson",0014739994653x5786,danielgonzalez@example.com,"49092 Mcbride Inlet Suite 100, Gainesville, FL",29.651455,-82.314645,"Health Kits,Remapping,Drills,Shelter,Relief,Babysitting"
Pearson-Stokes,(401)2092353x66280,caitlyn16@example.com,"9756 Angela Village, Gainesville, FL",29.662143,-82.367354,"Water,Sandbags,School"
"Moss, King and Perkins",0018323054753,bbrown@example.net,"36481 Sharon Lake, Gainesville, FL",29.679138,-82.346728,"Housing,Pet Care,Counseling"
Cox Ltd,208.573.7876x769,evansdeborah@example.net,"6664 Mark Mills Suite 193, Gainesville, FL",29.630227,-82.397476,"Waste Removal,Pet Care,Lost & Found,Crowd Control,Remapping"
Parker Ltd,(403)8603108x88461,bbennett@example.org,"3524 Paul Course, Gainesville, FL",29.647566,-82.302985,"Health Kits,Evacuation,Relocation"
"Martinez, Smith and Hodge",3157565380,jessica26@example.net,"821 Anna Avenue Suite 838, Gainesville, FL",29.679346,-82.327987,"Relocation,Damage Reports,Clothing,Medical Camps,Evacuation,Clean-up,School"
Calderon-Thomas,+13995228356,vacevedo@example.org,"245 Griffin Bypass Apt. 550, Gainesville, FL",29.633165,-82.375647,"Clean-up,Legal,Food,Language Help,Evacuation,Support,Remapping"
Griffin Inc,(424)6913330,danielle35@example.net,"821 Melanie Springs Suite 941, Gainesville, FL",29.672513,-82.380133,"Insurance,Emergency Kits,Food"
Sharp Inc,+19723607259x36541,alexander38@example.org,"60307 Jacobs Prairie Apt. 174, Gainesville, FL",29.672522,-82.387569,"Pet Care,Trauma Support,Evacuation,Security,Emergency Kits,Legal"
"Fisher, Willis and Smith",309.290.1242x782,kathleen96@example.net,"5258 William Fords, Gainesville, FL",29.634269,-82.350624,"Communication,Helpline,Contacts,Security,Medication,Transport,Collection"
Merritt-Miller,9405813621,jcraig@example.com,"7480 Chapman Parkways, Gainesville, FL",29.676999,-82.323154,"Food,Medication,Relocation,Alerts"
"Evans, Gray and Aguilar",4393176395,smiles@example.com,"3045 Joseph Park, Gainesville, FL",29.677094,-82.349437,"Sanitation,Crowd Control,Triage,Counseling,Construction,Water,Clearance"
"Wright, Scott and Washington",415.836.0976,cassandramorris@example.com,"694 Sara Heights Suite 025, Gainesville, FL",29.652578,-82.330549,"Hazard Map,Counseling,Insurance,Translation,Crowd Control,Remapping"
"Herman, Daniels and Ritter",775.212.3557,nicolethompson@example.com,"72310 Jesus Mount, Gainesville, FL",29.669561,-82.314479,"Life Skills,Recruitment,Trauma Support,Sandbags,Water"
Taylor Group,+14736822058x610,campbellcassandra@example.org,"42969 Townsend Haven Apt. 921, Gainesville, FL",29.639507,-82.304456,"Recruitment,Helpline,Trauma Support,Shelter,Legal,Housing"
Thomas-Oneal,7393035784,morgan46@example.net,"6479 Jason Station, Gainesville, FL",29.658434,-82.393119,"Support,Needs Assessment,Medical,Financial Aid,Rebuild,Assessment,Relocation"
Daniels LLC,3207606980,kathrynjohnson@example.com,"91779 Debra Loop Suite 980, Gainesville, FL",29.671541,-82.308662,"Pet Care,Assessment,Trauma Support,Clearance,Power Supply"
Hanson and Sons,(318)7979201x4027,evansjoseph@example.net,"696 Denise Rest Apt. 418, Gainesville, FL",29.62333,-82.368962,"Mental Health,Housing,Temporary Schools"
Glenn Inc,(528)2472663x898,jmason@example.net,"780 Jay Flat, Gainesville, FL",29.652595,-82.383666,"Pet Care,Vaccination,Clearance,Shelter"
Jackson-Kim,588.258.2123,teresa29@example.org,"9708 Juan Roads Apt. 953, Gainesville, FL",29.655013,-82.319067,"Medical Camps,Lost & Found,Information,Triage,Hazard Map,Follow-up"
Phillips Ltd,+15476279284,pcastro@example.org,"1361 Karen Walks, Gainesville, FL",29.679902,-82.34978,"Medical Camps,Helpline,Mental Health,Childcare,Rebuild"
"West, Wilson and Gibbs",6782931473,gbrown@example.com,"0791 Edgar Mountain Suite 574, Gainesville, FL",29.655069,-82.394236,"Waste Removal,Water,Communication,Life Skills,Resource Sharing,Rebuild,Hygiene"
Odom LLC,(531)7567893,gary60@example.org,"60208 Hayley Knolls, Gainesville, FL",29.655837,-82.372077,"Support,Emergency Kits,Training,Damage Reports,Helpline,Power Supply,Contacts"
Black and Sons,2657368359,mgibbs@example.com,"484 Deanna Alley Suite 562, Gainesville, FL",29.625046,-82.377303,"Remapping,Hazard Map,Crowd Control"
Garcia Inc,(942)2259748,keithanderson@example.net,"76979 Benjamin Coves, Gainesville, FL",29.647048,-82.360227,"Relief,Drills,Pet Care,Assessment,First Aid,Blood Donation"
Conner-Ellis,7276437539x430,millsraymond@example.net,"65441 Todd Burg, Gainesville, FL",29.661868,-82.38395,"Medication,Language Help,Lost & Found,Contacts,Shelter"
Marshall-Williams,785.675.9728x38291,huberolivia@example.org,"37932 Garcia Ports Apt. 779, Gainesville, FL",29.632747,-82.399529,"Relocation,Mental Health,Debris Removal"
Lara PLC,5682231561x190,jamesmorrow@example.org,"67325 Morales Junction, Gainesville, FL",29.631106,-82.376643,"Health Kits,Legal,Water,Transport,Shelter,Rescue,Sandbags"
Krause LLC,(328)7997890x50310,daltonmurphy@example.net,"98034 Vazquez Wells Suite 468, Gainesville, FL",29.67203,-82.388302,"Collection,Legal,Drills,School,First Aid,Hygiene,Language Help"
"Ayala, French and Anderson",(422)4953410x351,tclark@example.com,"22299 Bailey Vista, Gainesville, FL",29.643291,-82.344137,"Housing,Legal,Health Kits,Temporary Shelter,School,Sandbags,Mental Health"
Collins LLC,7258690195x51774,mpowell@example.com,"1503 Eric Court Suite 777, Gainesville, FL",29.656396,-82.339583,"Translation,Collection,Insurance,Rebuild,Waste Removal,Sandbags"
Mosley PLC,5693247301x30300,taylorsarah@example.org,"6950 Smith Harbors, Gainesville, FL",29.662742,-82.304563,"Crowd Control,Language Help,Trauma Support"
Boone Inc,0013256309228x0911,kbaker@example.net,"663 Greg Parkways Apt. 675, Gainesville, FL",29.650953,-82.330197,"Power Supply,Equipment,Triage,Sandbags"
"Alvarez, Larson and Snyder",920.908.9383,wsnyder@example.net,"80819 Brown Glen Apt. 380, Gainesville, FL",29.624176,-82.370804,"Life Skills,Counseling,Cash Aid,Debris Removal"
Smith-Castillo,8789741785x724,amandawilliams@example.net,"99850 Gonzalez Wall Apt. 387, Gainesville, FL",29.652607,-82.382914,"Hygiene,Legal,Construction,Recovery,Rescue"
Jimenez-Simmons,(345)4091980x9925,katrinamorgan@example.com,"70133 Villarreal Squares Apt. 116, Gainesville, FL",29.668787,-82.376039,"Counseling,Emergency Kits,School"
"Roberts, Jones and Smith",914.973.4692,moorejennifer@example.org,"08836 Matthew Mount, Gainesville, FL",29.662447,-82.369797,"Food,Temporary Schools,Waste Removal,Clearance,Transport"
"Thomas, Mendez and Ramirez",2018083809,murrayalicia@example.org,"6637 Francisco Flats, Gainesville, FL",29.667662,-82.388275,"Cash Aid,Toolkits,Shelter,Financial"
"Hernandez, Greer and Love",691.207.9583x286,charlesmartin@example.com,"252 Marcus Avenue, Gainesville, FL",29.670683,-82.364673,"Rescue,Documentation,Clearance,Financial Aid,Power Supply"
Morgan and Sons,889.545.9748,amber61@example.com,"3796 Daniel Row Suite 515, Gainesville, FL",29.663681,-82.380974,"Drills,Assessment,Temporary Schools,Evacuation,First Aid,Awareness"
"Walls, Smith and Wiggins",0018709066138x742,joseph04@example.net,"910 Weber Island, Gainesville, FL",29.647883,-82.396245,"Health Kits,Relocation,First Aid,Food,Contacts,Job Aid,Triage"
"Smith, Williams and Franklin",0014949976545,matthew72@example.com,"256 William Square Suite 442, Gainesville, FL",29.636618,-82.355466,"Communication,Damage Reports,Babysitting"
Meadows LLC,795.677.6526,belljessica@example.net,"0851 Anthony Valleys, Gainesville, FL",29.645614,-82.37524,"Relief,Lost & Found,Job Aid,Blood Donation"
Baldwin Inc,847.472.9715x8186,fmaxwell@example.com,"4499 Garza Drives, Gainesville, FL",29.669516,-82.337766,"Collection,Trauma Support,Medical,Documentation,First Aid,Financial Aid"
Wilkins and Sons,+15995132110,erika04@example.com,"2300 Sarah Mountains, Gainesville, FL",29.658058,-82.372308,"First Aid,Job Aid,Relocation,Babysitting"
Jordan-Ibarra,(450)7043706x359,qdyer@example.net,"88797 Alexander Island Apt. 091, Gainesville, FL",29.659012,-82.330895,"Construction,Power Supply,Language Help,Waste Removal,Lost & Found,First Aid"
Little PLC,9325610011x04551,kwright@example.net,"915 Sarah Keys Suite 699, Gainesville, FL",29.659456,-82.318882,"Clean-up,Assessment,Remapping,Temporary Schools,Drills"
"Gallegos, Moore and Love",3572045683,theodorerodriguez@example.org,"668 Sarah Harbor Apt. 505, Gainesville, FL",29.631524,-82.333818,"Supplies,Lost & Found,Contacts,Relocation,Awareness,Hygiene"
Mejia-Richardson,9654499574x48999,jeffrey63@example.net,"335 Melissa Grove, Gainesville, FL",29.65293,-82.347098,"Sandbags,Sanitation,Temporary Shelter"
Hill-Jackson,(406)7080822x3834,paul72@example.net,"13977 John Spur Apt. 444, Gainesville, FL",29.627832,-82.35843,"Waste Removal,Recruitment,Childcare,Financial Aid,Cash Aid,Toolkits"
Martinez Inc,+13699610348x772,jasoncollins@example.com,"61560 Parker Oval Suite 445, Gainesville, FL",29.678576,-82.362288,"Clearance,Mental Health,Collection,Remapping"
Brown-Bolton,965.446.5957x083,schultzpatricia@example.net,"77942 Lucas Landing, Gainesville, FL",29.624766,-82.345303,"Contacts,Recovery,Security,Medical Camps,Information"
"Moore, Smith and Bean",4235709592,todd78@example.org,"961 Kathryn Valleys Apt. 815, Gainesville, FL",29.637436,-82.314153,"Cash Aid,Water,Construction,Sandbags,Triage,Debris Removal,Recovery"
Smith Ltd,9449586245,hughesdonna@example.org,"41673 Brown Land, Gainesville, FL",29.662062,-82.390674,"Pet Care,Blood Donation,Clearance,Crowd Control,Collection,Hygiene"
Ramos-Lewis,+18146841441x931,juanestrada@example.net,"83074 Thomas View Suite 759, Gainesville, FL",29.672107,-82.378433,"Pet Care,Childcare,Triage,Helpline,Coordination,Supplies,Vaccination"
Dyer-Craig,0013543376723x398,patrickbrenda@example.com,"6218 Andrade Street Suite 194, Gainesville, FL",29.67799,-82.313005,"Communication,Medication,Crowd Control,Support,Psych Support,Emergency Kits"
Rodriguez LLC,280.512.8302x42381,randyandrade@example.com,"32332 Vaughn Islands Suite 384, Gainesville, FL",29.667599,-82.38885,"First Aid,Job Aid,Recovery"
Williamson and Sons,976.467.0482,erica62@example.com,"17418 Donald Lake Apt. 739, Gainesville, FL",29.658926,-82.341145,"Triage,Training,Toolkits,Cash Aid,Relief,Support"
Matthews-Fuentes,2425570425,mannpaul@example.org,"1353 Shannon River Apt. 822, Gainesville, FL",29.65575,-82.371805,"Childcare,Needs Assessment,Supplies,Collection,Relocation"
"Jones, Buchanan and Edwards",(603)8966746x2962,shawnagarcia@example.com,"4265 Moran Prairie, Gainesville, FL",29.659098,-82.317322,"Hazard Map,Coordination,Shelter,Triage"
Burns-Brooks,3237937726x961,carrielynch@example.com,"6095 Perkins Green, Gainesville, FL",29.638879,-82.349216,"Sandbags,Financial,Childcare,Damage Reports,Security"
Hill-Valentine,+14124460660,morenojennifer@example.net,"06137 Rachael Corner Suite 670, Gainesville, FL",29.624283,-82.395296,"Financial Aid,Hygiene,Training,Counseling,Shelter,Housing"
Morales PLC,+12874007600x157,bdavis@example.com,"7818 Martin Lodge, Gainesville, FL",29.627346,-82.370971,"Clothing,Medication,Translation,Remapping,Relief"
Mccall Group,(262)2895685,brianwatkins@example.com,"9847 Alexander Ferry, Gainesville, FL",29.639894,-82.344737,"Temporary Schools,Crowd Control,Training,Security,Follow-up,Lost & Found,Communication"
Jones-Cruz,(424)7022957,heather70@example.net,"1753 Adams Cove Apt. 571, Gainesville, FL",29.624373,-82.300646,"Assessment,Temporary Schools,Food,Counseling,Sanitation,Follow-up,Awareness"
"Schultz, Mendoza and White",+14168264558,parsonsleah@example.net,"1343 Cherry Stravenue Apt. 682, Gainesville, FL",29.620404,-82.369362,"Resource Sharing,Collection,Cash Aid,Trauma Support,Medical Camps,Water,Recovery"
Barnes-Hall,0015652628228,ellisandrea@example.net,"92919 Bradford Fords, Gainesville, FL",29.637969,-82.370334,"Waste Removal,Coordination,Cash Aid,Drills,Power Supply,Remapping"
Hall-Valencia,(729)3161993x36175,rodriguezjoshua@example.com,"971 Booth Lodge, Gainesville, FL",29.654883,-82.383392,"Transport,Temporary Schools,Hygiene,Medication"
"Howard, Wagner and Smith",(403)7287245x2656,brandygarza@example.net,"9055 Michelle Plains, Gainesville, FL",29.662462,-82.319315,"Awareness,Food,Vaccination"
"Castro, Jackson and Walsh",(967)9240215x4242,nealtheresa@example.org,"970 Sanchez Avenue, Gainesville, FL",29.620617,-82.305065,"Financial Aid,Blood Donation,Pet Care,Hygiene,Hazard Map,Contacts"
Mckinney Ltd,2136874665,pattersoncourtney@example.com,"5828 Monroe Knolls, Gainesville, FL",29.675327,-82.338682,"Trauma Support,Recovery,Contacts,Babysitting,Food,Emergency Kits,Health Kits"
Mcdonald Ltd,2967186331x013,dakota32@example.net,"847 Jasmine Grove Apt. 726, Gainesville, FL",29.634586,-82.317877,"Relief,Crowd Control,Documentation,Security,Translation,Vaccination,Assessment"
Sullivan and Sons,(679)5166145,christine18@example.net,"766 Meghan Union Apt. 108, Gainesville, FL",29.649865,-82.318189,"Collection,Assessment,Clearance"
Vargas-Cruz,259.772.6272,calvin71@example.net,"447 Ryan Garden, Gainesville, FL",29.640708,-82.32363,"Documentation,Transport,Recruitment,Relief,Recovery,Supplies"
Smith Group,+17413527296x279,iclayton@example.org,"1620 Gonzalez Plains, Gainesville, FL",29.668152,-82.340064,"Blood Donation,Debris Removal,Sanitation,Power Supply"
Fernandez Ltd,628.469.3064x7495,sarahale@example.com,"317 Brian Camp Suite 477, Gainesville, FL",29.679359,-82.323351,"Follow-up,Childcare,Recovery,Documentation,Toolkits,Alerts,Financial Aid"
Bailey-Werner,3395352627x2923,lorrainegreer@example.com,"742 Butler Field Apt. 274, Gainesville, FL",29.654471,-82.326381,"Follow-up,Damage Reports,Contacts,Triage,Helpline,Mental Health,Medical Camps"
Ellis-Benson,+17875049040x71568,mcclureeric@example.com,"443 Robinson Circles, Gainesville, FL",29.6786,-82.356188,"Crowd Control,Toolkits,Lost & Found,Financial,Food"
Moore LLC,4598177939,whitakerevan@example.org,"5231 Lisa Neck, Gainesville, FL",29.625056,-82.310612,"Relocation,Recovery,Needs Assessment,Language Help,Medical"
Jimenez-Park,(951)7683189x88312,erodriguez@example.net,"417 Steven Skyway, Gainesville, FL",29.663067,-82.338752,"Coordination,Toolkits,Communication,Counseling"
Cole-Carpenter,(888)5476616x6462,jensenvanessa@example.net,"9252 Robert Camp Suite 925, Gainesville, FL",29.645673,-82.309181,"Cash Aid,Housing,Training,Job Aid,Clearance,Health Kits,Toolkits"
Wyatt LLC,5144121563x385,ryanelliott@example.net,"228 Miller Meadows Apt. 161, Gainesville, FL",29.623823,-82.316329,"Medical Camps,Clearance,Follow-up,Financial Aid"
"Webster, Calderon and Cunningham",472.256.6810,wray@example.com,"989 Bryan Port, Gainesville, FL",29.637938,-82.355668,"Blood Donation,Job Aid,Legal,Drills,Recruitment,Counseling"
Santiago LLC,450.496.2172x30326,pfoley@example.org,"43238 Weaver Shores Apt. 840, Gainesville, FL",29.647284,-82.372961,"Life Skills,Clearance,Legal,Sanitation,Housing"
"Morris, Wiley and Jacobs",0019782938348x0957,pberry@example.org,"570 Mills Light, Gainesville, FL",29.641608,-82.33225,"Mental Health,Blood Donation,Follow-up"
Rodriguez-Fernandez,523.269.3623x18055,baxterbrandy@example.org,"18093 Wendy Island, Gainesville, FL",29.636114,-82.398403,"Awareness,Counseling,Recruitment,Temporary Schools,Contacts"
Erickson-Ward,423.798.7875x2116,markdavies@example.org,"800 Cook Meadow Suite 669, Gainesville, FL",29.669067,-82.321963,"Childcare,Waste Removal,Hazard Map,Cash Aid,Relocation,Clothing,Food Packs"
Singleton-Davis,+13564622229x470,fjones@example.com,"1170 Brown Crescent, Gainesville, FL",29.628415,-82.345562,"Temporary Shelter,Documentation,Health Kits,Sandbags"
Garner PLC,0012279022995x23500,jenniferboone@example.org,"392 Antonio Radial Suite 746, Gainesville, FL",29.62442,-82.386612,"Housing,Sanitation,Drills,Support,Security,Temporary Shelter,Medical"
"Parker, Smith and Boyd",9684970649x38134,thompsonmark@example.org,"959 Johnson Groves, Gainesville, FL",29.638362,-82.366167,"Clothing,Helpline,Sandbags,First Aid,Insurance,School"
Wilkerson and Sons,2157540683x7803,hherrera@example.com,"9592 Whitaker Plain Apt. 214, Gainesville, FL",29.666734,-82.352298,"Coordination,Relocation,Job Aid,Shelter"
"Collins, Jones and Maxwell",298.945.9571x86124,julia85@example.net,"1867 Robert Vista, Gainesville, FL",29.623738,-82.390893,"Collection,Contacts,Transport,Food Packs"
"Rojas, Dean and Miller",(216)3192350,katherinegonzalez@example.com,"41662 Hamilton Rapids Apt. 847, Gainesville, FL",29.624482,-82.393178,"Financial Aid,Debris Removal,Alerts,Coordination,Support,Emergency Kits"
"Navarro, Flores and Perkins",4058542181x72267,martinjacob@example.com,"7228 Melanie Plain, Gainesville, FL",29.634404,-82.374552,"Counseling,Relocation,Psych Support,Assessment,Equipment,Legal"
Jones-Curtis,703.407.4373,psmith@example.net,"37354 Miller Hollow, Gainesville, FL",29.66355,-82.364056,"Insurance,Translation,Clean-up,Job Aid,Health Kits,Collection,Pet Care"
"Harper, Graves and Kerr",3097746172x078,erinfriedman@example.net,"2869 Toni Loaf, Gainesville, FL",29.658206,-82.389581,"Recovery,Temporary Shelter,Relief,Vaccination,Job Aid"
"Allison, Joseph and Brown",(258)7495291,nfowler@example.org,"561 Caitlin Stream Suite 556, Gainesville, FL",29.647347,-82.36659,"Information,Helpline,Food Packs,Mental Health,Insurance,Counseling"
Davenport-Lee,(890)4282495x704,jacksonpaul@example.org,"8373 Alexis Causeway Apt. 309, Gainesville, FL",29.660198,-82.38805,"Medication,Insurance,Resource Sharing,Relocation"
"Moore, Kelly and Lawrence",421.333.9878,sayala@example.com,"427 Elizabeth Drive, Gainesville, FL",29.630982,-82.367611,"Triage,Transport,First Aid"
"Ortega, Sheppard and Baker",371.893.0910,umartin@example.com,"10009 Curtis Pines Apt. 795, Gainesville, FL",29.643546,-82.378712,"Babysitting,Recruitment,Contacts,Supplies,Clearance,Translation,Crowd Control"
"Salinas, Vaughn and Wilson",8008699454x61120,davidwalker@example.org,"07611 Bruce Mission Apt. 408, Gainesville, FL",29.62331,-82.339354,"Rebuild,Remapping,Resource Sharing"
Johnson-Wagner,+13203187916x696,jason66@example.net,"113 Smith Highway Suite 311, Gainesville, FL",29.632469,-82.360526,"Vaccination,Language Help,Training,Helpline"
White LLC,(508)4272665,cassidygutierrez@example.org,"032 Katherine Prairie Suite 438, Gainesville, FL",29.656389,-82.325166,"Housing,Evacuation,Hygiene,Language Help,Toolkits,Information"
"Miller, Jennings and Hernandez",842.235.8356x78215,thompsonjames@example.net,"7615 Daniel Lane Suite 549, Gainesville, FL",29.629385,-82.384427,"Helpline,Support,Water,Babysitting,Job Aid,Emergency Kits,Health Kits"
"Montoya, Cox and Jackson",9559123596,billy09@example.com,"088 Schwartz Lights, Gainesville, FL",29.628667,-82.330341,"Clearance,Life Skills,Water,Clothing"
"Paul, Walker and Thompson",630.819.7078x73322,briggslindsay@example.net,"91481 Terrence Knoll, Gainesville, FL",29.672253,-82.370507,"Language Help,Shelter,Support,Training,Job Aid"
Jackson-Williams,(978)5489098x03226,xwolf@example.net,"86314 Sarah Lights Apt. 626, Gainesville, FL",29.620395,-82.396809,"Legal,Emergency Kits,School"
Douglas-Macdonald,+19016301579x4080,douglassimmons@example.org,"78448 Emily Turnpike Suite 382, Gainesville, FL",29.655694,-82.342424,"Temporary Shelter,Lost & Found,Collection,Legal,Relief"
"Turner, Martinez and Johnson",4747486003x793,andrewbrown@example.net,"76462 David Drives Suite 214, Gainesville, FL",29.662443,-82.37219,"Power Supply,Translation,Food,Job Aid,Follow-up,Insurance"
Rubio-Henderson,(401)8635160,morganronald@example.org,"65487 Lamb Creek, Gainesville, FL",29.627787,-82.309716,"Assessment,Translation,Water"
Castillo-Lee,(910)8592968x3446,swilliams@example.org,"6132 Todd Park Apt. 574, Gainesville, FL",29.66353,-82.319639,"Follow-up,Contacts,Language Help,Debris Removal,School,Financial Aid"
Lewis-Bates,401.224.8870x83014,llewis@example.org,"5987 Patrick Parkway, Gainesville, FL",29.677663,-82.33112,"Translation,Mental Health,Sanitation,Recruitment,Communication,Life Skills"
Hall-Owens,+14034683541x68940,tmonroe@example.com,"25211 Kim Stravenue Suite 650, Gainesville, FL",29.6206,-82.391059,"Medical,School,Language Help,Needs Assessment,Contacts,Communication,Blood Donation"
Trujillo Inc,741.855.3154x3590,ksanders@example.com,"920 Teresa Rue Suite 128, Gainesville, FL",29.679243,-82.339449,"Recovery,Medical,Evacuation"
Mejia Group,477.416.3074x6857,david64@example.net,"88376 Mccarthy Field, Gainesville, FL",29.664279,-82.366869,"Information,Waste Removal,Power Supply"
Riddle LLC,+17143818191,andrea59@example.net,"157 Thomas Meadow Apt. 289, Gainesville, FL",29.667066,-82.301009,"Clean-up,Job Aid,Relocation"
Blackwell Group,0015029864747x9554,staylor@example.com,"006 Matthew Lane, Gainesville, FL",29.648504,-82.365917,"Job Aid,Follow-up,Insurance,Relocation,Recovery"
Fletcher Inc,432.334.3613x3905,glopez@example.org,"92301 Griffin Manors, Gainesville, FL",29.625626,-82.300676,"Rescue,Triage,Life Skills,Legal,Helpline,Resource Sharing,Clean-up"
"Montgomery, Ayers and Stevenson",6994131310,dayebony@example.net,"59327 Arthur Terrace, Gainesville, FL",29.648754,-82.314351,"Medication,Damage Reports,Information,Blood Donation,Equipment,Coordination"
Hunt-Kelly,654.948.9362x3740,morriswilliam@example.com,"601 Andrew Roads, Gainesville, FL",29.649174,-82.382439,"Psych Support,Support,Relief,Construction,Recovery"
"King, Steele and Phillips",891.674.1500,mbowen@example.com,"090 Theodore Curve, Gainesville, FL",29.643142,-82.361422,"Counseling,Clearance,Contacts,Health Kits,Triage,Supplies"
"Martin, Collier and Francis",0013232927468,douglas35@example.com,"188 Joan Landing Apt. 320, Gainesville, FL",29.648419,-82.336472,"Waste Removal,Medical,Contacts,Food Packs,Housing,Water,Life Skills"
Pierce-Armstrong,7847895768x4375,kristinebird@example.org,"643 Jones Hill, Gainesville, FL",29.668449,-82.331201,"Vaccination,Damage Reports,Documentation,Sanitation,Coordination"
"Parker, Davis and Neal",0019798696245,morrisbryan@example.net,"6883 Chavez Vista Apt. 198, Gainesville, FL",29.660315,-82.359242,"Hazard Map,Childcare,Training,Counseling,Communication,Awareness"
Berger-Bailey,448.789.4529x17394,jamie02@example.com,"68524 Marquez Land, Gainesville, FL",29.649515,-82.323549,"Support,Sanitation,Waste Removal,Shelter"
Carter Group,0017475991973,xrobinson@example.org,"44770 Monica Inlet Apt. 092, Gainesville, FL",29.626015,-82.349843,"Trauma Support,Emergency Kits,Hazard Map"
Johnson Ltd,0018148121782,fperkins@example.net,"1664 Sloan Avenue Suite 613, Gainesville, FL",29.659312,-82.329638,"School,Recovery,Damage Reports"
"Sanchez, Collins and Lutz",532.538.7546,hannah38@example.com,"27588 Day Canyon Suite 910, Gainesville, FL",29.641325,-82.383125,"Temporary Schools,School,Counseling,Medication,Drills,Needs Assessment"
"Bailey, Flores and Fields",0014143453499,adkinsrobert@example.org,"70370 James Bridge, Gainesville, FL",29.633387,-82.379113,"Evacuation,Health Kits,Awareness,Relief,Mental Health"
Benson-Nichols,+16505525546x9665,johnsonapril@example.net,"6928 Devin Mews, Gainesville, FL",29.639204,-82.322753,"Emergency Kits,First Aid,Psych Support"
Lane-Smith,5223851203,ufranco@example.net,"7789 Harry Lights Suite 654, Gainesville, FL",29.647156,-82.35004,"Helpline,Blood Donation,Health Kits,Follow-up,Childcare,Temporary Schools,Clearance"
Smith Group,472.492.4160,cassiewood@example.org,"832 Cindy Plains Apt. 415, Gainesville, FL",29.660599,-82.301202,"School,Hygiene,Pet Care,Temporary Shelter,Evacuation,Security,Trauma Support"
Franco PLC,(895)5171235x812,kimberlybarrera@example.org,"286 Edwin Crescent Apt. 371, Gainesville, FL",29.649503,-82.393359,"Awareness,Construction,Information,Triage,Evacuation,Financial Aid"
Randolph Group,0015539356246x555,lisa60@example.net,"295 Jenna Ranch, Gainesville, FL",29.646648,-82.396591,"Collection,Health Kits,Damage Reports,Support"
Payne-Yang,5342168712,epalmer@example.org,"150 Hernandez Burg, Gainesville, FL",29.664553,-82.369588,"School,Mental Health,Crowd Control,Follow-up,Awareness"
Rodriguez-Brown,433.201.1035,watsonfrederick@example.net,"897 Bobby Roads Apt. 034, Gainesville, FL",29.627225,-82.328404,"Hygiene,Equipment,Medical Camps,Supplies,Transport"
Jones-Lopez,(271)9676315x552,holmesbelinda@example.org,"884 Katelyn Row, Gainesville, FL",29.634937,-82.307054,"Security,Clothing,Resource Sharing,Communication,Cash Aid,Medical Camps,Housing"
Mack Group,8302940031,penningtondaniel@example.net,"6395 Patterson View Suite 823, Gainesville, FL",29.6412,-82.372893,"Assessment,Supplies,Coordination,Contacts"
"Austin, Gonzalez and Dougherty",(794)2985633x1269,michaelrhodes@example.org,"443 Robles Valley, Gainesville, FL",29.656182,-82.309839,"Temporary Schools,Supplies,Cash Aid,Food Packs,Crowd Control,Vaccination,Support"
Duran-Ortega,(360)9425558,vmitchell@example.net,"51738 Brian Corners, Gainesville, FL",29.641379,-82.315855,"Temporary Shelter,Security,Supplies"
"Greer, Gonzalez and Petersen",(244)9099337x342,julieshaw@example.com,"86448 Saunders Route, Gainesville, FL",29.648596,-82.34484,"Documentation,Recovery,Assessment,Coordination,Mental Health,School,Temporary Shelter"
Hunt-Gonzalez,+14643061806,carolynmarks@example.net,"16899 Nunez Causeway Suite 942, Gainesville, FL",29.62595,-82.332549,"Childcare,Lost & Found,Remapping,Blood Donation,Emergency Kits,Communication"
"Walker, Soto and Peterson",+18293782147,tracy21@example.com,"960 Vargas Lodge, Gainesville, FL",29.672929,-82.351097,"School,Waste Removal,Security,Health Kits"
"Powell, Boone and Jones",+19708428745x13931,mikaylanewman@example.net,"3788 Angela Bridge Suite 245, Gainesville, FL",29.647981,-82.359788,"Alerts,Food Packs,Psych Support,Assessment,Clean-up,Trauma Support,Relocation"
Hart-Wilson,0017352597478x565,josephlee@example.org,"12007 Wesley Dale Suite 679, Gainesville, FL",29.620701,-82.397599,"Food Packs,Recovery,Follow-up,Clean-up,Legal,Sanitation,Security"
"Sanders, Schmidt and Anderson",+16862278826,jasmineelliott@example.net,"63884 Bell Road, Gainesville, FL",29.643245,-82.379789,"Pet Care,Lost & Found,Relocation,Mental Health,Hygiene"
"Villa, Williams and Garcia",(746)7516931,amyhickman@example.org,"4863 Tyler Port, Gainesville, FL",29.667136,-82.348882,"Collection,Health Kits,Coordination,Security"
"Acosta, Marshall and Reynolds",(586)9161892,oross@example.com,"544 Jacob Plains, Gainesville, FL",29.6719,-82.353867,"Financial,Job Aid,Relief"
Stout Ltd,423.929.5283,stricklandmelissa@example.com,"1990 Yang Rest, Gainesville, FL",29.658218,-82.34017,"Legal,Food Packs,School"
Jones-Hensley,0012764480728x6480,bakerphilip@example.net,"86372 Sawyer Groves Suite 652, Gainesville, FL",29.677792,-82.31775,"Recruitment,Medication,Temporary Schools"
Bender-Dean,225.775.0137,sgaines@example.com,"535 Wilson Prairie Apt. 648, Gainesville, FL",29.647847,-82.346748,"Equipment,Lost & Found,Food Packs"
Johnson-Barnett,704.469.6227x4137,blairchristopher@example.net,"955 Nicholas Parks, Gainesville, FL",29.644641,-82.3885,"Medical Camps,Equipment,Communication,Relocation,Security,Follow-up,Sanitation"
"Nguyen, Gill and Mathews",333.958.6057x62995,javiermaxwell@example.com,"3382 Maynard Key Suite 669, Gainesville, FL",29.620792,-82.34139,"Insurance,Resource Sharing,Housing,Supplies,Triage,Clean-up,Crowd Control"
"Nichols, Duke and Smith",834.507.0206,leonmatthew@example.com,"80907 Raymond River Apt. 752, Gainesville, FL",29.623648,-82.338305,"Vaccination,Job Aid,Psych Support"
"Robinson, Giles and Romero",4978408890x9336,alyssa32@example.com,"425 Joshua Mews, Gainesville, FL",29.664331,-82.300255,"Communication,Documentation,Housing,Helpline,Relocation"
Fuller Inc,3467021048,watkinsbenjamin@example.org,"602 Paul Plaza Apt. 098, Gainesville, FL",29.678724,-82.334239,"Temporary Schools,Medical,Awareness,Sanitation"
"Juarez, Colon and Rivera",(236)4937055x37859,derrickbradley@example.org,"02477 Amanda View, Gainesville, FL",29.652903,-82.353589,"Needs Assessment,Shelter,Rebuild,Debris Removal,Collection"
Salinas LLC,4595487703x5540,dawn36@example.com,"9214 Linda Streets Apt. 978, Gainesville, FL",29.65856,-82.338208,"Childcare,Psych Support,Clothing,Lost & Found"
Peterson and Sons,+16503720885x57820,tracysullivan@example.com,"921 Contreras Row, Gainesville, FL",29.670062,-82.309332,"Clearance,Language Help,Evacuation,Triage,Food Packs,Health Kits"
"Murray, Frazier and Smith",0019408468623x571,ericagregory@example.org,"7792 Jamie Manor, Gainesville, FL",29.6236,-82.373296,"Sanitation,Triage,Job Aid"
Williams-Bell,(238)4786016,melissacharles@example.com,"081 Emma Ville Suite 725, Gainesville, FL",29.662636,-82.305933,"Recruitment,Debris Removal,Rescue"
"Davis, Fox and Hopkins",884.662.1295x187,jennifer54@example.org,"839 Lisa Knolls Apt. 470, Gainesville, FL",29.649109,-82.306149,"Mental Health,Evacuation,Recruitment"
Jones-Chen,6772824582,wmassey@example.net,"4064 Mccarty Loaf, Gainesville, FL",29.663483,-82.374187,"Remapping,Construction,Counseling"
Glenn Inc,(628)4714500x0951,justinwilliams@example.net,"283 Hicks Junctions Suite 720, Gainesville, FL",29.667725,-82.314431,"School,Temporary Shelter,Communication,Debris Removal,Blood Donation"
"Brown, Gross and Wallace",850.971.9115x149,brittany24@example.com,"424 Clark Creek Suite 293, Gainesville, FL",29.623641,-82.397014,"Hygiene,Life Skills,Legal,Lost & Found,Housing,Toolkits"
Clark-Bernard,317.868.0987,heather45@example.org,"3089 Cisneros Mills Apt. 510, Gainesville, FL",29.647612,-82.330912,"Crowd Control,Resource Sharing,Food Packs"
Briggs-Klein,255.246.3803x1272,alishaortiz@example.com,"4291 Jennifer Parks, Gainesville, FL",29.627078,-82.324529,"Triage,Food,Shelter,Collection"
Tucker-Pena,3232761596x78733,morgan15@example.net,"301 David Underpass Suite 101, Gainesville, FL",29.65928,-82.351915,"Vaccination,Cash Aid,Recruitment,Counseling,Food Packs,Hazard Map,Alerts"
"Melton, Hubbard and Kim",584.604.9307x01092,mccormickmichael@example.com,"0999 Jackson Pines Apt. 648, Gainesville, FL",29.636573,-82.311623,"Psych Support,Legal,Equipment,Clothing,Housing"
"Wilson, Simpson and Myers",(703)4895682,mikeriggs@example.com,"8173 Garcia Village Apt. 292, Gainesville, FL",29.637816,-82.360951,"Training,Coordination,Hygiene,Pet Care,Relief"
Kelley Group,952.975.9488x631,fosterchristine@example.com,"42622 Teresa Bridge, Gainesville, FL",29.646399,-82.321061,"Legal,Needs Assessment,Collection,Remapping,Childcare,Hazard Map,Rebuild"
"Logan, Williams and Jones",880.779.3543,fdunn@example.com,"352 Anthony Hill, Gainesville, FL",29.626016,-82.314875,"Clean-up,Vaccination,Language Help"
"Miles, Olsen and Hill",+13595932450x01534,jparker@example.com,"185 Stephanie Well Apt. 150, Gainesville, FL",29.638351,-82.394499,"Clearance,Waste Removal,Life Skills,First Aid,Legal"
"Orr, Gregory and Horne",7982205828,durhambenjamin@example.net,"3030 Patel Alley Apt. 133, Gainesville, FL",29.670713,-82.30035,"Rebuild,Temporary Schools,Support,Communication,Clothing"
"Castillo, Willis and Brown",(828)8076215x0259,johnsonnoah@example.com,"0753 Stevens Plains Apt. 297, Gainesville, FL",29.642331,-82.345684,"Sanitation,Documentation,Contacts"
Hendricks Ltd,+18042298195x22958,vrichardson@example.com,"3925 Ashley Street, Gainesville, FL",29.662467,-82.375498,"Legal,Follow-up,Documentation,Construction,Vaccination,Relief"
"Foster, Matthews and Ellis",3938353328x358,maria91@example.net,"69299 Michael Square, Gainesville, FL",29.634497,-82.329823,"Temporary Shelter,Counseling,Power Supply"
Mullen LLC,9579043361x4796,wtaylor@example.com,"61404 Carlson Isle, Gainesville, FL",29.650304,-82.34023,"Medical Camps,Hazard Map,Information,Equipment,Recovery"
Fox LLC,0012765349121x5359,thompsonkyle@example.org,"84475 Kimberly Point, Gainesville, FL",29.639116,-82.331712,"Financial Aid,Medical,Security,Training,Waste Removal,Relief"
Mccormick LLC,0018946794480x422,cochranchristopher@example.org,"362 Davis Well, Gainesville, FL",29.654989,-82.343581,"Translation,Alerts,Crowd Control,Damage Reports,Cash Aid,Job Aid"
"Long, Hoffman and Kelly",5693125249,angelafry@example.org,"25919 Nguyen Pike Apt. 751, Gainesville, FL",29.63645,-82.313337,"Relief,Communication,Insurance,Food Packs"
"Griffin, Andersen and Manning",(258)7096358,fjordan@example.net,"92366 Zimmerman Circles Apt. 292, Gainesville, FL",29.63805,-82.301758,"Recruitment,Clothing,Communication,Health Kits"
Michael-Trevino,+18032080284x975,wwolfe@example.net,"837 Ingram Groves, Gainesville, FL",29.650517,-82.372766,"Translation,Follow-up,Assessment,Hazard Map,Trauma Support"
Medina-Johnson,7683720402,mcdanieljohnathan@example.com,"36142 Thomas Causeway, Gainesville, FL",29.632505,-82.380098,"Crowd Control,Vaccination,Shelter"
"Cox, Gallagher and King",617.761.7234x8035,jmitchell@example.net,"72951 Cannon Vista, Gainesville, FL",29.623456,-82.318233,"Medication,Toolkits,Evacuation,Childcare,Rebuild"
Roberts Inc,(858)7901625,iarnold@example.org,"01314 Tamara Trail Suite 466, Gainesville, FL",29.673043,-82.353389,"Toolkits,Alerts,Evacuation"
"Galloway, Barnett and Payne",0019254087728x1614,colemanrodney@example.net,"73118 Rodriguez Alley, Gainesville, FL",29.656925,-82.356778,"Pet Care,Medical Camps,Rescue,Training,Insurance,Medication"
Wilson PLC,895.346.2531x16016,gonzaleznatalie@example.net,"904 Robert Expressway Apt. 524, Gainesville, FL",29.621117,-82.343384,"Evacuation,Insurance,Relief"
"Anderson, Bradley and Barron",0014478164631x3758,hillandrea@example.com,"6042 Bowman Passage Apt. 291, Gainesville, FL",29.622061,-82.344147,"Debris Removal,Helpline,First Aid"
Griffin and Sons,0013575514626x4292,robertbates@example.org,"01184 Weber Drives Apt. 327, Gainesville, FL",29.673672,-82.354253,"Training,Emergency Kits,Psych Support,Power Supply,Toolkits"
Carpenter LLC,4919577998x2213,randalljason@example.org,"52948 Strong Rest Apt. 942, Gainesville, FL",29.638067,-82.301995,"Life Skills,Supplies,Emergency Kits,Collection,Transport,Contacts,Alerts"
Jones Group,3712835406x688,brittanyjensen@example.org,"9855 Wells Centers, Gainesville, FL",29.6337,-82.367064,"Drills,Damage Reports,Food,Collection"
"Sanchez, Taylor and Savage",7519712573x75417,msmith@example.org,"45321 Barry Ramp Suite 782, Gainesville, FL",29.664689,-82.380873,"Pet Care,Resource Sharing,Crowd Control"
Cook-Lane,8438796147,seanfernandez@example.org,"801 Renee Key Apt. 091, Gainesville, FL",29.630172,-82.319962,"Recovery,Power Supply,Helpline,Insurance,Communication"
Simpson-Garner,+14083253509x8798,johnsbrittany@example.net,"21578 Mitchell Overpass, Gainesville, FL",29.633788,-82.351283,"Health Kits,Support,Assessment,Waste Removal,Clothing,Vaccination,Translation"
Miller-White,2266283762,edwardsandrew@example.org,"9711 Johnston Lane, Gainesville, FL",29.661484,-82.350787,"Information,Medical,Relief"
Hubbard PLC,+19105963769x95878,carolynayers@example.org,"5319 Harrison Ways Apt. 266, Gainesville, FL",29.624011,-82.317091,"Coordination,Psych Support,Supplies,Clean-up,Evacuation,Information,Counseling"
"Washington, Lee and Butler",9546622473x32747,leerenee@example.org,"1054 Wolfe Summit, Gainesville, FL",29.649638,-82.368643,"Alerts,Temporary Shelter,Drills,Trauma Support,Recovery,Power Supply,Hygiene"
"Rogers, Davenport and Thomas",9535563071x002,ellisanna@example.org,"077 Tapia Skyway Apt. 575, Gainesville, FL",29.674197,-82.392707,"Language Help,Shelter,Babysitting,Alerts,Information"
Gonzalez-Bailey,+14375390332x42548,wschroeder@example.org,"2006 Charles Heights Apt. 434, Gainesville, FL",29.655322,-82.397192,"Recruitment,Support,Medical Camps"
"Nolan, Casey and Tyler",+13505120641x0119,veronicayork@example.org,"013 Watkins Loop Suite 141, Gainesville, FL",29.650218,-82.362403,"Language Help,Medication,Equipment,Legal,Clothing"
Valdez Ltd,828.517.7836,manningdavid@example.org,"26386 Antonio Springs Suite 995, Gainesville, FL",29.658085,-82.375596,"Health Kits,Life Skills,Emergency Kits,Power Supply"
Lawrence LLC,+13498829468,colefrancisco@example.com,"305 Marc Club Suite 294, Gainesville, FL",29.621998,-82.331318,"School,Temporary Schools,Security,Transport,Crowd Control"
Chavez PLC,0016513953481,olivia58@example.org,"077 Clark River Suite 117, Gainesville, FL",29.628838,-82.321467,"Water,Needs Assessment,Medical,Food Packs"
Mcpherson Ltd,3477179009,vmcintosh@example.org,"95874 Gonzalez Vista, Gainesville, FL",29.643002,-82.360225,"Emergency Kits,Insurance,Damage Reports,Language Help,Psych Support,First Aid,Alerts"
Johnson-Bryant,+17632049194,ebonydouglas@example.org,"46642 Shelby Grove Apt. 273, Gainesville, FL",29.635291,-82.329827,"Helpline,Medical,Water,Cash Aid,School,Support"
"Smith, Collier and Walters",2826550392,holly93@example.net,"69698 Erika Bypass Suite 010, Gainesville, FL",29.65712,-82.34403,"Rebuild,School,Health Kits,Transport,Support,Blood Donation,Power Supply"
Howard-Holt,+19726988417x775,valeriedavis@example.com,"7281 White Skyway Suite 424, Gainesville, FL",29.666631,-82.352913,"Supplies,Recruitment,Evacuation,Construction,Life Skills"
"Strickland, Williams and Kelley",983.448.2418x29176,melissasalinas@example.org,"28349 Jones Ports Apt. 238, Gainesville, FL",29.662536,-82.371203,"Training,Debris Removal,Water,Sanitation,Mental Health,Clearance,Equipment"
Riley LLC,812.341.1420x412,hboyd@example.com,"555 Brandon Crest Suite 091, Gainesville, FL",29.633008,-82.320892,"Recovery,Coordination,Clearance,Sandbags,Relocation,Housing,Drills"
Schwartz-Walsh,0015773849701x84545,jenniferfoster@example.net,"66064 Kelly Freeway, Gainesville, FL",29.679904,-82.338922,"Resource Sharing,Support,Housing,Temporary Shelter,Relocation"
Parks Ltd,0017507395448x54637,rdixon@example.net,"2805 Jesse Bypass, Gainesville, FL",29.631539,-82.343886,"Health Kits,Drills,Needs Assessment,Recruitment,Power Supply"
Hodge Group,0016914756516,ccarter@example.net,"244 Joseph Roads Apt. 334, Gainesville, FL",29.676421,-82.395221,"Health Kits,Temporary Schools,Rebuild,Remapping,Counseling"
Gould-Williams,+18904459886,agreer@example.org,"5601 Courtney Grove Suite 962, Gainesville, FL",29.633792,-82.301246,"Water,Damage Reports,Life Skills,Waste Removal"
Williams Ltd,6135976267,jimenezjamie@example.net,"783 Alexander Pass, Gainesville, FL",29.668558,-82.386536,"Evacuation,Relief,Pet Care"
"Ware, Hubbard and Williams",612.615.8544x724,caldwellstephanie@example.org,"8385 Hughes Ways Suite 192, Gainesville, FL",29.679076,-82.363174,"Toolkits,Psych Support,Legal,Waste Removal"
Moore PLC,(863)2106327x7270,gbrown@example.com,"5297 William Parkway, Gainesville, FL",29.660308,-82.3518,"Remapping,Medical Camps,Drills,Trauma Support,Equipment,Triage"
Williams-Lowery,5707779216x16464,elizabeth08@example.org,"303 Davis Landing Apt. 134, Gainesville, FL",29.661231,-82.366869,"Food,Clearance,Shelter,Waste Removal"
Zamora-Fuller,(852)7416936,lisasharp@example.net,"58569 Shannon Ridge, Gainesville, FL",29.66985,-82.386752,"Health Kits,Food,Life Skills,Pet Care,Evacuation,Assessment,Recovery"
Mullen-Ellis,+16244824666,ataylor@example.com,"134 Sara Shore, Gainesville, FL",29.628839,-82.356746,"Recovery,Shelter,Support,Assessment,Trauma Support,Medication"
Thompson Group,5377577354x28839,cynthia77@example.com,"3733 Jerry Hollow, Gainesville, FL",29.642976,-82.338766,"Assessment,Emergency Kits,Collection,Sandbags,Clearance"
Coleman PLC,+19256997357x7619,wmichael@example.org,"49189 Freeman Hill, Gainesville, FL",29.653473,-82.331812,"Crowd Control,Damage Reports,Childcare,Hazard Map,Debris Removal"
Hayes Ltd,4642604733,stonepatrick@example.com,"89835 Courtney Manor Apt. 018, Gainesville, FL",29.640073,-82.358683,"Security,Temporary Shelter,First Aid,Relocation,Counseling,Clothing"
"Young, Duffy and Smith",4682801239x823,martinezmark@example.com,"5133 Rios Path, Gainesville, FL",29.67441,-82.305349,"Drills,Support,Medication,Rebuild,Clothing"
Walters-Norris,+14845893661x969,melissabeck@example.net,"492 Jeffery Manor Suite 528, Gainesville, FL",29.623995,-82.353165,"Vaccination,Crowd Control,Resource Sharing,Financial Aid"
"Cooper, Becker and Martinez",+14455975090x9330,cunninghammiranda@example.org,"108 James Glens Apt. 778, Gainesville, FL",29.654278,-82.306149,"Trauma Support,Pet Care,Hazard Map,Remapping,Transport"
"Watson, Barker and Martinez",+19918110393x983,stevensjessica@example.org,"3581 Watson Cliff Suite 144, Gainesville, FL",29.657004,-82.343486,"Counseling,Clean-up,Coordination,Follow-up,Pet Care,Debris Removal"
"Vincent, Jenkins and Johnson",(997)6331512,jenniferbarnett@example.org,"2333 Erin River, Gainesville, FL",29.633329,-82.307662,"Medical Camps,Collection,Triage"
"Rodriguez, Wilkinson and Peterson",(949)5917396,william87@example.com,"356 Morgan Drives, Gainesville, FL",29.65873,-82.312474,"Housing,Awareness,Power Supply,Documentation"
Roberts-Gomez,+12868054719x7917,xduncan@example.org,"430 Hernandez Knolls, Gainesville, FL",29.648984,-82.379128,"Clean-up,Crowd Control,Coordination,Recovery,Blood Donation,First Aid,Babysitting"
Bush LLC,673.508.0963,lesliemoore@example.com,"01555 Long Well, Gainesville, FL",29.622564,-82.326665,"Alerts,Resource Sharing,Collection,Contacts,Information,School"
"Cook, Macdonald and Shah",(325)2886181x43844,nsanders@example.org,"584 Campbell Tunnel, Gainesville, FL",29.649203,-82.364941,"Documentation,Debris Removal,Trauma Support,Needs Assessment,Blood Donation,Construction,Helpline"
Scott LLC,0013448032093x5695,znorris@example.net,"02329 Johnson Center Apt. 525, Gainesville, FL",29.628046,-82.341554,"Hazard Map,Trauma Support,Recruitment"
Sharp-Mcintosh,5275297124x140,rhondajohnson@example.net,"3573 Hunter Circles, Gainesville, FL",29.64088,-82.399184,"School,Food,Mental Health,Waste Removal,Communication"
Lewis-Moore,+17908328064x93882,randy63@example.com,"540 Emily Parkways Apt. 256, Gainesville, FL",29.628304,-82.315618,"Assessment,Resource Sharing,Rescue,Remapping,Sanitation,First Aid"
Knapp-Ferguson,3416538820,rebecca99@example.net,"713 Cline Field Suite 137, Gainesville, FL",29.635155,-82.394236,"Food Packs,Toolkits,Awareness,Communication,Psych Support"
White-Delgado,769.446.2751x8329,williamtorres@example.com,"76504 Matthew Center Suite 781, Gainesville, FL",29.668419,-82.308438,"Sanitation,Financial,Power Supply,Vaccination"
"Perez, Williams and Smith",0014402883957,quinnjeffrey@example.com,"3544 James Cliffs Apt. 828, Gainesville, FL",29.669933,-82.341863,"Life Skills,Rescue,Water,Housing,Clean-up,Blood Donation,Debris Removal"
Orozco Inc,676.741.1382,odouglas@example.org,"508 Alisha Camp Apt. 120, Gainesville, FL",29.642168,-82.373983,"Evacuation,Life Skills,Food,Recovery,Relocation,Remapping"
Johnston and Sons,236.973.0505,bryan47@example.net,"9894 Schultz Mall, Gainesville, FL",29.631218,-82.382681,"Information,Legal,Housing,Resource Sharing"
"Mccann, Williamson and Schultz",0015789592002x99027,agarrett@example.com,"665 Myers Passage Suite 630, Gainesville, FL",29.645322,-82.304993,"Documentation,Pet Care,Legal,Emergency Kits,Awareness,Health Kits,Clothing"
Hodges PLC,5892310681,jeffrey50@example.net,"36886 Palmer Valley, Gainesville, FL",29.660837,-82.333079,"Housing,Support,Vaccination"
Taylor-Myers,(429)6165323x88458,edowns@example.org,"1200 Timothy Ports Suite 890, Gainesville, FL",29.664307,-82.37022,"Alerts,Childcare,Power Supply"
Smith-Alvarez,580.591.5403x3548,hamptonjason@example.com,"726 Torres Shoal, Gainesville, FL",29.679312,-82.30899,"Triage,Medical Camps,Resource Sharing,Job Aid,Rebuild,Evacuation,Training"
Anderson Ltd,735.995.0228x7160,wnash@example.com,"356 Burke Inlet Suite 789, Gainesville, FL",29.667858,-82.375578,"Blood Donation,Babysitting,Life Skills,Housing"
Sanchez-Brown,+15787789143,thomaswinters@example.org,"3855 Schroeder Avenue, Gainesville, FL",29.625507,-82.377205,"Life Skills,Water,Translation,Legal,Temporary Schools"
Miller-Coleman,237.222.8093x830,johnsonjessica@example.org,"579 Humphrey Lakes Suite 139, Gainesville, FL",29.67388,-82.380611,"Clean-up,Evacuation,Medication,Food,Helpline,Clothing,Hygiene"
"Williams, Bauer and Cameron",6305031482x7647,fhubbard@example.net,"35367 Benjamin Prairie Suite 369, Gainesville, FL",29.639665,-82.393619,"Documentation,Cash Aid,Debris Removal,Coordination,First Aid,Temporary Schools,Supplies"
Holland LLC,3555489879x28933,tadams@example.com,"879 Rowe Station Suite 041, Gainesville, FL",29.676726,-82.31602,"Crowd Control,Communication,Debris Removal"
"Gibson, Brown and Garcia",+19067393652x462,brownlauren@example.com,"71044 Gilmore Stream Apt. 077, Gainesville, FL",29.676717,-82.344,"Security,Counseling,Power Supply,Babysitting,Sanitation"
"Sexton, Craig and Ramos",9993046640x3274,mcarrillo@example.net,"96872 Allen Shore Apt. 942, Gainesville, FL",29.670477,-82.34721,"Psych Support,Sandbags,Life Skills,Blood Donation"
Cooper LLC,(946)6230458,joshua14@example.org,"06608 Norman Club Apt. 302, Gainesville, FL",29.66226,-82.360213,"Clearance,Babysitting,Counseling,Communication"
"Jones, King and Cox",0013235732904x73698,wesley25@example.net,"73739 Richardson Dam, Gainesville, FL",29.673397,-82.383132,"Drills,Vaccination,Water,Temporary Schools,Clean-up"
Thomas Group,0016608039960x477,hmcclain@example.com,"666 Joyce Isle, Gainesville, FL",29.660876,-82.381851,"Relocation,Remapping,Recruitment,Drills,Debris Removal,Support"
Rodriguez Ltd,0014129274349x48395,adammcdonald@example.com,"22381 Fields Knoll, Gainesville, FL",29.631251,-82.354268,"Life Skills,Equipment,Contacts,Needs Assessment,Job Aid,Lost & Found,Coordination"
"Johnson, Young and Rose",0012623624967x284,sara24@example.com,"5818 Rangel Trail Suite 707, Gainesville, FL",29.667829,-82.396766,"Supplies,Counseling,Needs Assessment,Drills,Crowd Control,Contacts,Rescue"
Reed-Knight,583.556.5043x2875,thomaskathy@example.com,"78053 Johnson Islands Apt. 523, Gainesville, FL",29.645728,-82.301502,"Clothing,Remapping,Temporary Schools"
Orozco PLC,6354654928x789,thomascraig@example.org,"08247 Johnson Mountain Apt. 999, Gainesville, FL",29.678571,-82.361286,"Remapping,Food,Temporary Shelter,Medical Camps,Coordination,Communication,Lost & Found"
Walton Group,0019627535207x425,longcole@example.org,"17679 Victor Fork, Gainesville, FL",29.632316,-82.301406,"Sanitation,Collection,Waste Removal,Equipment,Coordination,Translation,Supplies"
Thomas-Beck,0017107403448x9379,fsmith@example.com,"1289 Henry Unions, Gainesville, FL",29.641424,-82.319117,"Financial Aid,Psych Support,Relocation,Hazard Map,Hygiene"
"Hicks, Carter and Turner",(929)7212059,fpeters@example.com,"1579 Sue Glen, Gainesville, FL",29.645566,-82.300052,"Helpline,Communication,Emergency Kits,Childcare"
Murphy-Gibbs,696.510.5539x239,thompsonbradley@example.com,"478 Adam Islands, Gainesville, FL",29.65493,-82.331675,"Debris Removal,Remapping,Health Kits,Trauma Support,Mental Health,Financial Aid"
Robles LLC,(718)7990386x900,carlsonmark@example.com,"98628 Sanchez Streets Apt. 537, Gainesville, FL",29.628104,-82.330012,"Clothing,Rebuild,Lost & Found,Toolkits"
"Henry, Summers and Hamilton",3585045599,brianna69@example.org,"260 Wiley Stream Suite 533, Gainesville, FL",29.626862,-82.381918,"Hygiene,Childcare,School,Communication,Temporary Shelter,Damage Reports"
Little Group,919.584.8186,roseandre@example.net,"899 Mcdonald Skyway, Gainesville, FL",29.639236,-82.387223,"Resource Sharing,Shelter,Clean-up,Translation,Coordination,Equipment,Clothing"
Moreno and Sons,+19933887686x78567,anthony85@example.com,"6827 Dougherty Circles Apt. 496, Gainesville, FL",29.676178,-82.350488,"Collection,Assessment,Documentation,Resource Sharing,Evacuation,Coordination,Food"
Duke and Sons,831.678.0725,mcgeedaniel@example.net,"847 Anderson Expressway, Gainesville, FL",29.660685,-82.356236,"Contacts,Medication,Babysitting,Communication,Toolkits,Lost & Found,Shelter"
Morris-Shelton,7083235604,nathanielglover@example.net,"37905 Christian Road Suite 545, Gainesville, FL",29.66976,-82.301077,"School,Assessment,Babysitting,Language Help,Debris Removal,Power Supply"
Dawson PLC,(762)9612373,jbest@example.net,"394 James Squares Suite 131, Gainesville, FL",29.667041,-82.367884,"Job Aid,Lost & Found,Rebuild"
Lewis-Stuart,9308112787,christina30@example.org,"27758 Mueller Hill, Gainesville, FL",29.644968,-82.364992,"Damage Reports,Medical Camps,Blood Donation"
Lee PLC,0015119788594x8857,amandanewton@example.com,"04014 Frye Greens Suite 650, Gainesville, FL",29.622528,-82.303953,"Needs Assessment,Clean-up,Vaccination,Assessment"
Hudson-Diaz,(293)7353291x10350,frivera@example.net,"8141 Laura Drive Suite 060, Gainesville, FL",29.640701,-82.343215,"Insurance,Hygiene,Helpline,Sanitation,Temporary Schools,Remapping,Collection"
Williamson Inc,7273474992x67063,hartandrew@example.com,"06678 Yvette Plaza Suite 559, Gainesville, FL",29.651391,-82.37496,"Information,Sanitation,Awareness,Water"
Stewart-Lewis,0015733523668x43620,courtney84@example.com,"37301 Mark Shoals, Gainesville, FL",29.647978,-82.39706,"Remapping,Lost & Found,Needs Assessment,Food"
Esparza LLC,7115886180,christopherhoffman@example.net,"10066 Mark Run, Gainesville, FL",29.658608,-82.301041,"Hygiene,Supplies,School,Documentation,Shelter"
"Evans, Deleon and Lewis",0017355663945x5403,jking@example.net,"113 Audrey Points, Gainesville, FL",29.661915,-82.359158,"Mental Health,Housing,Sanitation,Water,Coordination,Resource Sharing"
"King, Lee and Washington",2469303496x41660,naguilar@example.org,"293 Jimenez Radial, Gainesville, FL",29.620041,-82.34899,"Contacts,Psych Support,Sanitation,Damage Reports"
"Spears, Dickerson and Norris",(961)8721318x39459,scott37@example.net,"87848 Sara Turnpike Suite 291, Gainesville, FL",29.670434,-82.334368,"Assessment,Needs Assessment,Recovery"
"Jackson, Gonzalez and Lopez",5095946043x2824,natalie54@example.org,"4274 Wheeler Shoal Apt. 075, Gainesville, FL",29.676207,-82.344064,"Documentation,Recovery,Drills,Information,Crowd Control,Hazard Map,Support"
Lozano Ltd,(380)4351464,tfowler@example.com,"30600 Sarah Roads Apt. 779, Gainesville, FL",29.659591,-82.319538,"Insurance,Clothing,Transport,Sandbags"
Carson Inc,6455012230,elawrence@example.com,"6891 Nicole Square, Gainesville, FL",29.621098,-82.345631,"Financial Aid,Clean-up,Toolkits,Crowd Control,Triage,Pet Care"
"Ortega, Williams and Schroeder",333.497.9301x4387,brooksamanda@example.org,"208 Hanson Curve, Gainesville, FL",29.63333,-82.393733,"Medical Camps,Relocation,Relief,Drills,Emergency Kits"
"Kline, Yates and Rivera",0018186719128,michaelrussell@example.net,"2740 John Cliff, Gainesville, FL",29.644101,-82.368955,"Pet Care,Coordination,Sanitation"
Smith-Mitchell,0012238295673,millershelly@example.com,"13108 Love Station, Gainesville, FL",29.640036,-82.317341,"Power Supply,First Aid,Insurance"
"Miranda, Glover and Estrada",+12229489875x4326,trodriguez@example.org,"36648 Perez Inlet Apt. 533, Gainesville, FL",29.654678,-82.345706,"Medical Camps,Counseling,Trauma Support,Cash Aid,Power Supply,Food,Remapping"
Tucker PLC,(793)3961111,darrellgrant@example.com,"74953 Harper Path, Gainesville, FL",29.666876,-82.321624,"Alerts,Financial Aid,Counseling,Pet Care"
Mccoy-Lee,9382202644,lynndiaz@example.com,"9994 Wright Fords Suite 072, Gainesville, FL",29.628552,-82.358048,"Collection,Sanitation,Financial Aid,Translation,Coordination,Water,Clearance"
Edwards-Murphy,+14457915657x7257,rachel89@example.net,"725 Sarah Square Apt. 179, Gainesville, FL",29.623999,-82.352377,"Triage,Rescue,Waste Removal,Collection"
"Parsons, Morgan and Walker",2607502119,ijordan@example.net,"0106 Delacruz Lodge Apt. 865, Gainesville, FL",29.661731,-82.331732,"Contacts,Drills,Psych Support,Water,Hazard Map,Supplies"
"Wilkins, Garcia and Wilson",448.227.0426x7189,vjoseph@example.net,"41942 Chen Corner, Gainesville, FL",29.640483,-82.355506,"Debris Removal,Evacuation,Hygiene,Helpline"
Hood-Williamson,9467909413,felicia14@example.net,"54280 Jillian Trace Suite 700, Gainesville, FL",29.65262,-82.338657,"Sandbags,Food,Collection,Medical,Financial Aid,Debris Removal"
"Murray, Becker and Coleman",+15472845505x17358,jessica89@example.com,"5514 Herrera Mountains, Gainesville, FL",29.668818,-82.344714,"Food,Alerts,Transport,Financial Aid,Temporary Shelter,Recruitment,Rescue"
Sanchez-Smith,4027248593x330,malvarez@example.com,"07056 Holder Club Suite 283, Gainesville, FL",29.644232,-82.372283,"Power Supply,Housing,Training,Contacts,Financial,Blood Donation,Legal"
"Waters, Kerr and King",(278)9339958x401,annabaker@example.com,"707 Michael Wall, Gainesville, FL",29.658987,-82.323855,"Toolkits,Temporary Shelter,Babysitting,Health Kits,Blood Donation,Financial,Waste Removal"
"Woods, Lee and Chung",5127926496,edwin98@example.net,"520 Bowers Brook, Gainesville, FL",29.662866,-82.357443,"Temporary Shelter,Drills,Equipment,Trauma Support,Recovery"
Schneider Inc,(926)2790095x8524,jonesmorgan@example.com,"33557 Richardson Overpass Apt. 122, Gainesville, FL",29.677214,-82.385175,"Food,Recruitment,Relief,Job Aid,Crowd Control,Alerts,Hygiene"
Taylor Ltd,(468)3396919,heather47@example.com,"68180 Kristine Spurs, Gainesville, FL",29.673657,-82.363914,"Remapping,Pet Care,Vaccination,Collection"
Young-Alvarez,(504)2437288x7733,snielsen@example.org,"711 Mcclain Streets, Gainesville, FL",29.66567,-82.330182,"Water,Language Help,Temporary Shelter,Needs Assessment,Rebuild,Financial,Vaccination"
Boyle Inc,0012819287314,mayscarolyn@example.org,"0211 Cheryl Roads Suite 901, Gainesville, FL",29.632143,-82.349329,"Clearance,Life Skills,Documentation,Helpline"
Rich Ltd,+15677050606,anne26@example.net,"33049 Daniel Lock, Gainesville, FL",29.666146,-82.338753,"Recovery,Awareness,Psych Support,Damage Reports,Sandbags,Rebuild"
Smith-Taylor,4558356103x2340,tcurtis@example.org,"4195 Hunt Oval, Gainesville, FL",29.645853,-82.375446,"Support,Psych Support,Alerts,Contacts"
Wallace Group,9612470761x210,heathernunez@example.org,"051 Lutz Valley, Gainesville, FL",29.653349,-82.368383,"Psych Support,Support,Equipment,Job Aid,Housing"
White-Jenkins,0018455605470,scott99@example.com,"189 April Burgs Suite 287, Gainesville, FL",29.642217,-82.384595,"Hygiene,Sandbags,Toolkits,Resource Sharing,Legal,Vaccination"
"Dudley, Wright and Jimenez",6425716896x2133,renee09@example.net,"4743 Amanda Meadows, Gainesville, FL",29.67344,-82.388043,"Life Skills,Contacts,Food,Remapping,Hazard Map,Insurance,Crowd Control"
Hernandez-Carter,(772)9029404x76461,brownstacy@example.net,"157 James Glens, Gainesville, FL",29.648495,-82.363996,"First Aid,Clothing,Medical Camps,Follow-up,Equipment,Pet Care,Temporary Schools"
Abbott-Ramsey,555.975.7364x595,jamesvaughan@example.org,"963 Eric Stravenue Apt. 887, Gainesville, FL",29.62864,-82.358368,"Financial Aid,Needs Assessment,Lost & Found,First Aid,Toolkits,Water"
Quinn-Johnson,0018415934386x27087,garrett71@example.com,"383 Davis Alley, Gainesville, FL",29.677847,-82.35734,"Clearance,Transport,Food,Temporary Shelter"
Phillips Group,6085010259,cookmichael@example.net,"2413 Phillips Walks Suite 841, Gainesville, FL",29.620237,-82.312437,"Sandbags,Rescue,Helpline"
"Cross, Martin and Jackson",+14233415260x177,brandi11@example.com,"664 Miller Mountains, Gainesville, FL",29.632401,-82.359249,"Damage Reports,Crowd Control,Vaccination"
Patterson Ltd,+13977040813x509,gonzalezteresa@example.org,"7144 Henry Lane, Gainesville, FL",29.63363,-82.306679,"Blood Donation,Documentation,Drills,Clean-up,Financial Aid,Follow-up"
Lawson-Nguyen,8682644259x21619,prattlaura@example.org,"690 Coleman Crossing Suite 444, Gainesville, FL",29.676696,-82.360084,"Pet Care,Lost & Found,Babysitting,Awareness,Debris Removal,Needs Assessment,Clean-up"
Thomas Ltd,+15187099281,heatherschmitt@example.org,"94168 Lori Street, Gainesville, FL",29.640153,-82.395178,"Documentation,Collection,Hazard Map,Debris Removal,Power Supply"
"Cortez, Dudley and Campos",9476572857x915,hodgestina@example.org,"480 James Street Suite 971, Gainesville, FL",29.629116,-82.327633,"Food Packs,Support,Resource Sharing,Recruitment,Blood Donation,Remapping,Evacuation"
"Mcconnell, Rose and Smith",+17846638686x9671,ewinters@example.net,"860 Katherine Stream, Gainesville, FL",29.63759,-82.363376,"Damage Reports,Clearance,Food Packs"
Brown-Mitchell,668.364.2782,shelly85@example.net,"023 Sanchez Bypass Apt. 399, Gainesville, FL",29.673684,-82.314916,"Clearance,Construction,Debris Removal,Rescue"
Burnett and Sons,(670)3780145x183,abigailvaldez@example.net,"3600 Mcmahon Plain Apt. 844, Gainesville, FL",29.623456,-82.386576,"Financial Aid,Life Skills,Hazard Map,Temporary Schools,Collection"
"Ingram, Sutton and Johnson",246.986.6067x86363,yhouston@example.net,"97278 Dunn Causeway, Gainesville, FL",29.630767,-82.303154,"Pet Care,Alerts,Equipment,Recruitment"
Williams Group,8249282327x4714,solsen@example.com,"3376 Tina Divide, Gainesville, FL",29.659718,-82.36402,"Psych Support,Toolkits,Transport"
"Campbell, Garcia and Johnson",8176660911,rconley@example.com,"522 Wright Tunnel, Gainesville, FL",29.668354,-82.396362,"Awareness,Water,Legal,Sanitation"
Travis PLC,(491)8916654,michaelcrawford@example.com,"1721 Brandon Drive, Gainesville, FL",29.647755,-82.385029,"Collection,Shelter,Hygiene,Childcare,Hazard Map,Mental Health"
Smith-Brown,(368)4270200x2826,aaron11@example.org,"927 Haley Extension Apt. 058, Gainesville, FL",29.673897,-82.369439,"Helpline,Equipment,Temporary Shelter,Childcare,Pet Care,Resource Sharing"
"Smith, Fletcher and Douglas",624.990.0482x84400,bartlettchris@example.org,"55216 Ralph Bridge, Gainesville, FL",29.628174,-82.307427,"Alerts,Housing,Waste Removal,Clothing"
Finley-Baker,9905224387,xchristian@example.com,"9014 Jennifer Knolls Suite 247, Gainesville, FL",29.643692,-82.364426,"Power Supply,Lost & Found,Rescue,Pet Care,Contacts"
"Singh, Hancock and Brewer",+13914897833,marshallchristie@example.org,"938 James Glens, Gainesville, FL",29.669119,-82.360054,"Waste Removal,Training,Housing,Blood Donation,Water"
Martinez PLC,+16943004702x750,nmendez@example.org,"1334 Emily Springs, Gainesville, FL",29.627948,-82.377927,"Coordination,Power Supply,Triage,Clean-up,Communication,Sanitation"
"Mercer, Moore and Wells",+19089521458x657,timothy25@example.net,"25111 Smith Light Suite 868, Gainesville, FL",29.628095,-82.363562,"Construction,Waste Removal,Childcare,School,Insurance,Temporary Schools"
Roberson-Powers,790.363.3741x392,stricklandjessica@example.com,"969 Keith Station, Gainesville, FL",29.675764,-82.373221,"Triage,Legal,Rescue,Temporary Schools,Assessment,Recruitment"
Lewis and Sons,2722016267,pbridges@example.com,"8259 Dean Plaza Suite 958, Gainesville, FL",29.653232,-82.347013,"Food,Medication,Coordination,Job Aid,Language Help"
Fox-Wilson,(661)3442476,sharon14@example.net,"4995 Rocha Springs Apt. 578, Gainesville, FL",29.632569,-82.31712,"Alerts,Contacts,Cash Aid,Equipment,Hygiene,Relief,Resource Sharing"
"Duarte, Dawson and Moss",+18236971342x4647,lisacarpenter@example.com,"56161 Chang Cape Apt. 621, Gainesville, FL",29.622041,-82.36214,"Information,Training,Food,Triage"
Parks-Jordan,292.501.1673,amarks@example.net,"1994 Rogers Highway, Gainesville, FL",29.676705,-82.323256,"Drills,Medical,Sanitation,Temporary Shelter,Sandbags,Documentation"
"Miller, Allen and King",0012526936110x5290,patriciabaker@example.net,"330 Blake Common Suite 871, Gainesville, FL",29.670902,-82.325815,"Psych Support,Equipment,Insurance,Translation"
"Brown, Willis and Jennings",524.976.5278x014,htaylor@example.org,"92019 Kayla Squares Suite 243, Gainesville, FL",29.645864,-82.30166,"Coordination,Security,Insurance,Pet Care"
Galvan Inc,0015518685721,benjamin95@example.net,"171 Roberts River Apt. 193, Gainesville, FL",29.64319,-82.398791,"Documentation,Emergency Kits,Water,Sandbags,Awareness,Food Packs,Health Kits"
Castillo Ltd,(416)5254285x831,william08@example.net,"934 Hickman Turnpike Apt. 893, Gainesville, FL",29.652285,-82.375649,"Medical,Emergency Kits,Relocation,Sandbags"
"Rogers, Jones and Morris",0019154297845,esantiago@example.org,"0056 Moore Dale Suite 592, Gainesville, FL",29.620401,-82.30371,"Documentation,Remapping,Lost & Found,Awareness"
Duarte-Walker,(818)6444339x8190,ronald38@example.org,"7875 Vasquez Bypass Suite 248, Gainesville, FL",29.639107,-82.320746,"Supplies,Temporary Schools,Shelter,Evacuation,Legal,Insurance,Job Aid"
Clark PLC,(641)4288785x31147,william22@example.org,"24234 Gonzalez Knolls, Gainesville, FL",29.662505,-82.395895,"Documentation,Construction,Awareness,Hygiene,Information"
Harris-Costa,(524)5602521x020,kimberly16@example.net,"4588 Hansen Pike, Gainesville, FL",29.678909,-82.35254,"Life Skills,Lost & Found,Transport,Babysitting,Supplies,Drills"
"Ellis, Rojas and Smith",606.866.0920,donnareed@example.net,"993 Hubbard Hills Apt. 317, Gainesville, FL",29.633683,-82.366867,"Training,Babysitting,Follow-up,Medical"
"Cole, Graham and Bailey",4253199977,heather19@example.org,"28723 Reginald Extensions Apt. 381, Gainesville, FL",29.669788,-82.365868,"Construction,Triage,School,Pet Care,Medication,Sanitation,Power Supply"
Campbell Group,(733)3346686x469,nstrickland@example.com,"9066 Deborah Key, Gainesville, FL",29.647505,-82.35458,"Clean-up,Collection,Security,Lost & Found,Financial Aid"
"Vasquez, Robinson and Rice",6056914002x059,whitney08@example.net,"008 Thompson Gateway, Gainesville, FL",29.657382,-82.312152,"Recovery,Translation,Housing"
"Juarez, Davis and Martinez",+18208351379x1855,robertslynn@example.com,"91916 John Points, Gainesville, FL",29.64731,-82.339975,"Sandbags,Helpline,Insurance,School,Construction,Medication,Rebuild"
"Thomas, Curtis and Tucker",3916448465x3262,staceymartinez@example.net,"0155 Bush Summit, Gainesville, FL",29.639621,-82.38596,"Equipment,Waste Removal,Medication,First Aid,Legal,Clearance,Hazard Map"
"Shields, Sullivan and Miller",6189437091x8578,patriciahart@example.org,"74674 King Causeway Suite 475, Gainesville, FL",29.662523,-82.352291,"Needs Assessment,Follow-up,Clothing,Temporary Schools,Medical,Water"
Martin-Davis,+16564968731x208,hannah47@example.com,"62128 Michael Fields, Gainesville, FL",29.678139,-82.340524,"Clothing,Needs Assessment,Legal,Damage Reports,Blood Donation,Language Help,Recovery"
"Dyer, Foster and Jackson",686.758.4028,brendalozano@example.org,"86832 Nelson Turnpike, Gainesville, FL",29.623321,-82.393978,"Lost & Found,Sandbags,Health Kits,Vaccination,Financial Aid,Hygiene"
Moore-Taylor,(859)4583398,kyle37@example.net,"2996 Curtis Skyway Apt. 319, Gainesville, FL",29.673798,-82.32304,"Supplies,Rescue,Hazard Map,Construction,Collection,Power Supply,Information"
Parker Ltd,6086132917,schmidtjustin@example.net,"65971 Maldonado Springs, Gainesville, FL",29.657923,-82.327362,"Toolkits,Transport,Life Skills,Hazard Map,Sanitation"
"Perez, Alvarez and Green",3196949285x59422,fmurray@example.net,"3655 Lauren Groves, Gainesville, FL",29.636629,-82.330316,"Sandbags,Awareness,Childcare,Cash Aid,Relief,Clean-up"
"Miller, Wong and Watson",+14896919675x651,victoriarivera@example.net,"173 King Mall Suite 304, Gainesville, FL",29.639563,-82.323321,"Trauma Support,Clothing,Translation,Hygiene"
Lloyd-Fernandez,0016453718405x64797,janeporter@example.org,"402 Fuller Islands, Gainesville, FL",29.638754,-82.314169,"Evacuation,Food Packs,Sanitation"
Curry-Smith,(588)2515896x594,austinjohnson@example.org,"35326 Church Wells, Gainesville, FL",29.67681,-82.30588,"Trauma Support,Medical,Blood Donation,Cash Aid,Training"
"Williams, Smith and Kelley",667.308.4804x409,gfarrell@example.org,"2664 Hampton Crescent, Gainesville, FL",29.624955,-82.362292,"Drills,Recruitment,Clean-up,Coordination"
Fuentes-Lane,972.228.2660x44353,ryan70@example.org,"638 Derek Meadow, Gainesville, FL",29.673323,-82.389608,"Recruitment,Communication,Rescue,Clearance,Collection,Equipment,Training"
"Miller, Vargas and Rivera",+19469467642x5298,blackmelissa@example.org,"0749 Cody Road, Gainesville, FL",29.67253,-82.373568,"Language Help,Food,First Aid,Helpline,Emergency Kits,Sanitation"
"Clark, Evans and Murray",9574352206,rachelsmith@example.net,"946 Joshua Isle, Gainesville, FL",29.663794,-82.344968,"Contacts,Rebuild,Debris Removal,Mental Health,Training,Power Supply,Blood Donation"
"Bates, Martinez and Allen",+15454318704x816,brittanylevy@example.org,"1905 Johnson Island Suite 161, Gainesville, FL",29.644938,-82.302124,"Babysitting,Pet Care,Debris Removal,Job Aid,Recruitment"
Flores-Koch,2827611473x05171,bianca85@example.net,"96882 Burton Prairie, Gainesville, FL",29.635323,-82.373777,"Alerts,Awareness,Remapping"
Harris-Hester,7417380698x38420,vpacheco@example.org,"33177 Jill Roads Apt. 872, Gainesville, FL",29.645699,-82.370596,"Information,Hygiene,Childcare,Evacuation,Needs Assessment"
Bond Inc,0016542420314x7753,breannasutton@example.net,"66642 Hicks Alley Suite 219, Gainesville, FL",29.649416,-82.327576,"Babysitting,Waste Removal,Language Help,Lost & Found,Relocation,Temporary Shelter,Counseling"
Ramirez Inc,5653463225x8345,farmereduardo@example.org,"4627 Adam Corner Apt. 478, Gainesville, FL",29.661798,-82.327166,"Documentation,Damage Reports,Supplies,Transport,Medical Camps"
Johnson Inc,3445722305,sjohnson@example.net,"48188 Wolf Grove, Gainesville, FL",29.666909,-82.307271,"Insurance,Toolkits,Cash Aid"
Zhang and Sons,(477)5347668,wwu@example.org,"33213 West Plaza Suite 126, Gainesville, FL",29.673441,-82.351017,"Supplies,Construction,Life Skills,Relief,Communication,Medical,Shelter"
Acosta Ltd,0014015504598,lisa01@example.org,"437 Tyler Ways Apt. 584, Gainesville, FL",29.622374,-82.38468,"Clean-up,Security,Legal,Job Aid,Babysitting,Shelter"
"Green, Sanders and Davis",0018815789692x519,hknight@example.net,"0082 Tonya Rue Apt. 221, Gainesville, FL",29.67814,-82.37794,"Housing,Clean-up,Supplies,Helpline,Follow-up,Medical Camps,Financial Aid"
Small-Carlson,5789558700,codychavez@example.net,"7249 Russell Parks Suite 359, Gainesville, FL",29.662703,-82.347694,"First Aid,Legal,Helpline,Blood Donation,Remapping"
"Lewis, Mckay and Le",4874852537x115,michellegoodwin@example.com,"79371 Stein Via, Gainesville, FL",29.636427,-82.355589,"Temporary Shelter,Power Supply,Babysitting,Rescue,Alerts"
Nash and Sons,(351)7948280x0983,tmartinez@example.com,"9518 Jose Rue, Gainesville, FL",29.679441,-82.366916,"Follow-up,Housing,Clean-up,Crowd Control,Psych Support,Blood Donation,Cash Aid"
Davis-Sweeney,730.825.1484x1260,huntmary@example.com,"805 Baker Forest, Gainesville, FL",29.673254,-82.375112,"Legal,Food,Medication,First Aid,Communication,Coordination"
"Porter, Butler and Davis",7495193866,rodriguezbrianna@example.com,"87265 Robert Streets Apt. 466, Gainesville, FL",29.624831,-82.384711,"Cash Aid,Resource Sharing,School,Support,Hazard Map,Food Packs,Evacuation"
Thomas-Maxwell,(225)9579450,brittanybarton@example.net,"1668 Luis Hills, Gainesville, FL",29.625697,-82.36783,"Life Skills,Debris Removal,Clearance"
Jones-Nguyen,949.556.2119x38817,paula73@example.com,"61851 Christopher Ford Suite 020, Gainesville, FL",29.664896,-82.33185,"Clothing,Coordination,Lost & Found,Helpline"
Fox LLC,+15636302681x4791,ronnie28@example.org,"703 Jordan Vista, Gainesville, FL",29.667797,-82.366386,"Drills,Emergency Kits,Temporary Schools,Insurance,Hazard Map"
"Chavez, Garcia and Brown",0017384173954x613,jonestimothy@example.net,"432 Francisco Light, Gainesville, FL",29.657973,-82.351659,"School,Information,Rescue,Clean-up"
Bennett-Perry,(729)2417324,maryberry@example.com,"97944 Scott Courts, Gainesville, FL",29.67128,-82.361402,"Mental Health,Hazard Map,Recruitment"
"Allen, Hoover and Harris",0013819456070x8988,brooksandre@example.org,"0613 Cooper Glen, Gainesville, FL",29.645764,-82.335491,"Collection,Security,Housing,Hazard Map"
Jackson and Sons,8194342275,spencerjennifer@example.org,"52751 Katherine Ramp, Gainesville, FL",29.65677,-82.346739,"Waste Removal,Collection,Damage Reports,Recruitment,Support"
Young-Garrett,282.471.0315,carolynmoreno@example.com,"54424 Cassidy Plains, Gainesville, FL",29.650804,-82.371369,"Contacts,Relocation,Rescue,Helpline,Relief,Translation"
Bender-Thomas,+19618143851,durhammary@example.net,"370 Jeremy Parks Suite 291, Gainesville, FL",29.65709,-82.378174,"Shelter,Temporary Schools,Life Skills,Emergency Kits"
Taylor-Nelson,(825)5188758x39757,kkerr@example.net,"23203 Chavez Corner, Gainesville, FL",29.65016,-82.326618,"Hazard Map,Clean-up,Needs Assessment,School,Recovery"
"Smith, Neal and Vance",0018582042043x1513,ashleymcpherson@example.net,"31023 Samantha Mountains, Gainesville, FL",29.67789,-82.306106,"Babysitting,Equipment,Temporary Shelter"
"Scott, Russell and Reeves",+15788963618,wrobinson@example.com,"325 Morrison Canyon, Gainesville, FL",29.669628,-82.384275,"Food,Temporary Schools,Emergency Kits,Transport"
Young-Ramirez,0017092073057,jameskey@example.org,"4437 Michael Way Suite 543, Gainesville, FL",29.644922,-82.338802,"Transport,Temporary Shelter,Drills,Toolkits"
"Allen, Myers and Hubbard",6329479666x7793,ucole@example.net,"5108 Phillips Divide, Gainesville, FL",29.673867,-82.345224,"Assessment,Security,Information,Recovery,Shelter,Water"
"Massey, Johnson and Sloan",+13158876435x197,robert16@example.net,"2998 Henry Brooks, Gainesville, FL",29.627366,-82.328795,"Lost & Found,Awareness,Medical Camps,Financial,Translation,Rescue,Coordination"
Mcintyre-Choi,6767874779,krangel@example.net,"142 Carney Tunnel, Gainesville, FL",29.674584,-82.36633,"Communication,Translation,Resource Sharing,Awareness,Temporary Schools,Power Supply"
Watson-Hinton,(923)2664287x25152,joseph26@example.com,"122 Christopher Grove Apt. 075, Gainesville, FL",29.636276,-82.387344,"Assessment,Drills,Collection,Cash Aid,Medication,Training"
Shaw-Glass,(372)7327339x1000,fernandezrobert@example.com,"4175 Todd Keys, Gainesville, FL",29.642305,-82.34889,"Food Packs,Communication,Job Aid,Vaccination"
"Schwartz, Myers and Cook",0019458253260x6415,echase@example.com,"860 Theresa Villages Suite 376, Gainesville, FL",29.675732,-82.341,"Cash Aid,Information,Equipment,Waste Removal,Contacts"
"Mckinney, Woods and Rodriguez",7824665454x1190,nicholas63@example.net,"210 Brett Mission, Gainesville, FL",29.661336,-82.389769,"Language Help,Relief,Water"
Pearson Group,3638656732,donna22@example.net,"797 Rodriguez Roads, Gainesville, FL",29.630149,-82.364661,"Emergency Kits,Sandbags,Transport,Legal"
Schneider LLC,+13307334016x1416,brian89@example.net,"64519 Mccall Street, Gainesville, FL",29.665439,-82.345556,"Crowd Control,First Aid,Emergency Kits,Relief,Recruitment,Childcare,Job Aid"
"Robinson, Galvan and Wright",8057610179x02974,longmelissa@example.net,"69515 Shannon Light Apt. 283, Gainesville, FL",29.633777,-82.386786,"Waste Removal,Damage Reports,Transport,Clean-up,Training,First Aid"
"Benson, Ward and Marshall",789.595.6443x9424,cookaaron@example.org,"474 Pierce Plain Apt. 349, Gainesville, FL",29.674847,-82.373845,"Hygiene,Documentation,Follow-up"
Davis-Thompson,0015173942563x1325,afoster@example.com,"702 Malone Forks Suite 490, Gainesville, FL",29.675709,-82.391638,"Recruitment,Crowd Control,Rescue"
Davidson-Wagner,5813562387x256,sean80@example.org,"89287 Pierce Plains Apt. 405, Gainesville, FL",29.620998,-82.329394,"Follow-up,Equipment,Waste Removal,Clothing"
Barry PLC,+18247707660x79553,austinbuckley@example.com,"311 Martin Ways Suite 710, Gainesville, FL",29.653124,-82.327055,"Cash Aid,Clothing,Food Packs,Support"
Welch-Pacheco,(941)8475311x773,jeremynelson@example.com,"45957 Bright Rue Suite 349, Gainesville, FL",29.637974,-82.3211,"Blood Donation,Pet Care,Follow-up"
"White, Moyer and Johnson",4217345676,christopher89@example.com,"78350 Williams Brook, Gainesville, FL",29.625797,-82.350074,"Assessment,Clean-up,Evacuation,Hazard Map,Contacts,Rescue"
Christensen-Delacruz,0016403911808x2058,linda50@example.com,"897 Sarah Cape, Gainesville, FL",29.627265,-82.347629,"Temporary Schools,Blood Donation,Housing,Construction,Medication,Clean-up,Information"
Sheppard Inc,(252)2533632x5217,blackwelljay@example.net,"16830 Tammy Harbor, Gainesville, FL",29.641811,-82.382827,"Security,Debris Removal,Emergency Kits"
Savage Group,+12405595741,allenelizabeth@example.net,"13198 Stephanie Shores, Gainesville, FL",29.661618,-82.310619,"Resource Sharing,Temporary Schools,Hazard Map,First Aid"
"Carr, Collins and Vaughn",(336)4284879x64397,torrescarrie@example.com,"73129 Amanda Wells, Gainesville, FL",29.634494,-82.364484,"Awareness,Relief,Training,Legal,Debris Removal"
"Pace, Quinn and Rivas",969.215.0657x1155,lhenderson@example.net,"743 Randall Garden, Gainesville, FL",29.646112,-82.356107,"Waste Removal,Cash Aid,Food"
Hogan-Robbins,694.856.5818x1776,strongandrea@example.org,"5357 Dunn Circle, Gainesville, FL",29.661677,-82.324342,"Cash Aid,Financial,Psych Support,Recovery"
"Reyes, Haynes and Olson",+19246560606x89613,rachel32@example.org,"90155 Chapman Rest, Gainesville, FL",29.635549,-82.322899,"Temporary Shelter,Job Aid,Waste Removal,Hazard Map,Debris Removal,Rescue,Medical Camps"
Melton-Santiago,(608)5624124,dwoods@example.net,"73847 Wright Shoal Apt. 082, Gainesville, FL",29.67254,-82.304985,"Hygiene,Supplies,Sandbags,Evacuation,Relief,Alerts"
"Gray, Lane and Avery",(418)7680300,michael70@example.net,"11578 Carlos Throughway, Gainesville, FL",29.658427,-82.320972,"Drills,Toolkits,Food"
Crawford and Sons,0019959028876x00729,davidhoward@example.org,"642 Reyes Dale Suite 247, Gainesville, FL",29.658856,-82.344068,"Clearance,Life Skills,Pet Care,Medical Camps,Trauma Support,Psych Support,Financial Aid"
Davis Ltd,936.922.3642,chelsealarson@example.org,"372 Coffey Hill Suite 986, Gainesville, FL",29.662931,-82.317925,"Relocation,Clean-up,Follow-up,Hygiene"
"Schmidt, Osborn and Myers",(658)5147347x478,latasha12@example.com,"560 Herrera Expressway Suite 342, Gainesville, FL",29.649972,-82.301671,"Financial Aid,Cash Aid,Information"
Hernandez-Gonzalez,3504167242x29478,robertfaulkner@example.net,"67568 Marshall Falls, Gainesville, FL",29.656826,-82.353354,"Communication,Rescue,Life Skills,Hazard Map,Mental Health"
Hawkins and Sons,9605882213,shannonmoore@example.com,"787 Benjamin Groves, Gainesville, FL",29.676616,-82.32749,"Damage Reports,Counseling,Insurance,Temporary Shelter,Equipment,Clean-up,Collection"
"Kennedy, Crawford and Smith",(594)6882941x2465,john38@example.org,"75282 Paul Tunnel, Gainesville, FL",29.630589,-82.364162,"Clean-up,Contacts,Temporary Schools,Transport,Counseling"
Ellison-Gross,0015965933716,popelauren@example.net,"3953 Jackson Viaduct, Gainesville, FL",29.622206,-82.350894,"Emergency Kits,Alerts,Relocation,Triage,Debris Removal,Blood Donation"
"Williams, Castro and Casey",(813)8107584x79713,daniel82@example.net,"14679 Christian Parkways, Gainesville, FL",29.667379,-82.38621,"Hazard Map,Vaccination,Cash Aid,Psych Support,Communication"
"Lewis, Rodriguez and Smith",7412454942x7790,kelli23@example.org,"7796 Peggy Junctions, Gainesville, FL",29.676165,-82.368277,"Needs Assessment,Translation,Rescue,Food"
Young and Sons,6609507698x52004,christophermclean@example.org,"6282 James Row, Gainesville, FL",29.679438,-82.325457,"Medical,Power Supply,Clearance,Assessment,Housing"
"Silva, Rivera and Ramirez",+19404849485x8626,baileyshirley@example.org,"10611 Erin Turnpike, Gainesville, FL",29.638691,-82.366023,"Psych Support,Sandbags,Supplies,Financial,Hygiene"
Smith Group,0014882075002x1084,monicamullins@example.org,"194 Melissa Rapids Apt. 432, Gainesville, FL",29.678332,-82.340004,"Legal,Resource Sharing,Water"
"Klein, Castillo and Ortega",283.611.6409x18968,christopher02@example.org,"8839 Victoria Rue, Gainesville, FL",29.660777,-82.352884,"Coordination,Damage Reports,Language Help,Emergency Kits,Legal,Helpline"
Morton LLC,(909)8077167x74577,crawfordvanessa@example.org,"71929 Daniel Plaza Apt. 147, Gainesville, FL",29.65931,-82.381506,"Childcare,Toolkits,Contacts,Psych Support"
Carroll Group,0014798677161x1740,tuckercarrie@example.net,"5310 Jack Common Suite 081, Gainesville, FL",29.628701,-82.321628,"Follow-up,Information,Recruitment,Debris Removal,Childcare,Sanitation,Assessment"
Morgan-Anderson,6156418916,urocha@example.com,"3676 Williams Groves, Gainesville, FL",29.646442,-82.399638,"Mental Health,Construction,Financial Aid,Relocation,Remapping,Waste Removal"
Mays-Thomas,8084041994,paul88@example.org,"6910 Ramos Hollow, Gainesville, FL",29.650256,-82.366775,"Clothing,Sandbags,Contacts,Resource Sharing,Alerts,Rebuild"
"Galloway, Esparza and Williams",(879)4069861,catherinebutler@example.net,"1005 Richards Lakes Suite 216, Gainesville, FL",29.646741,-82.358727,"Financial Aid,Clothing,Sandbags,Remapping,Assessment,Clearance,Helpline"
Ward Inc,0019664793618,dduncan@example.net,"9963 Tucker Club, Gainesville, FL",29.647697,-82.311883,"Sandbags,Life Skills,Recruitment,Financial,Follow-up"
Hicks LLC,(728)6015226x82524,browndale@example.com,"0345 Brian Greens Suite 751, Gainesville, FL",29.669509,-82.3654,"Rescue,Medication,Supplies,Insurance,Counseling,Toolkits,Vaccination"
Mcclure Group,+12823778830,murillodeanna@example.net,"810 Johnny Station, Gainesville, FL",29.624664,-82.388008,"Health Kits,Emergency Kits,Psych Support,Information"
"Weiss, Watts and Palmer",600.473.0632,knightaaron@example.org,"1613 Gary Vista Suite 557, Gainesville, FL",29.623708,-82.348984,"School,Babysitting,Vaccination,Hygiene,Water"
Williams LLC,0015097263706x56425,russellandrea@example.org,"839 James Freeway, Gainesville, FL",29.64687,-82.329512,"Security,Medical Camps,Rescue,Transport,Temporary Schools,Alerts"
Roberts-James,(526)2783619,robert40@example.net,"1463 Thomas Skyway, Gainesville, FL",29.64567,-82.39355,"Life Skills,Evacuation,Emergency Kits,Blood Donation,Medical,Sanitation,Relief"
Berg-Stephens,(644)6709093x4435,janet33@example.org,"025 Torres Oval, Gainesville, FL",29.662303,-82.391905,"Supplies,Evacuation,Legal,Cash Aid,Collection,Blood Donation"
Bauer Ltd,4423958340x3198,ramosjohn@example.net,"141 Yang Center Apt. 733, Gainesville, FL",29.635004,-82.344736,"Contacts,Housing,Legal,Documentation,Food Packs"
Dickson PLC,0019469673994x4507,dnixon@example.org,"6563 Boyd Glen, Gainesville, FL",29.620773,-82.32952,"Counseling,Evacuation,Support,Resource Sharing"
Benson and Sons,9005475797x262,schroederdesiree@example.net,"944 David Points Suite 491, Gainesville, FL",29.623499,-82.337608,"Follow-up,Insurance,Support,Legal,Counseling,Clothing"
Bryant Inc,(659)5654410,xgriffith@example.com,"95217 Taylor Estates, Gainesville, FL",29.620736,-82.309357,"Relief,Transport,Triage,Construction"
Vaughn Group,+14613796730x461,crodriguez@example.org,"714 Sara Views, Gainesville, FL",29.639719,-82.32042,"Collection,Language Help,Mental Health"
Conway PLC,+14379313815x68912,dbarnes@example.com,"66033 Williamson Trace Apt. 460, Gainesville, FL",29.647865,-82.38667,"Insurance,Construction,Follow-up,Supplies,Medical Camps,Collection"
Larson-Keller,991.937.3772x68346,levans@example.net,"98770 Andrew Flat, Gainesville, FL",29.649699,-82.302534,"Triage,Cash Aid,Recovery"
Gentry-Rivers,3437106663x8200,loriterry@example.org,"25528 Banks Cliffs, Gainesville, FL",29.65898,-82.357207,"Assessment,Helpline,Food,Toolkits,Security,Needs Assessment,Follow-up"
Jones-Spencer,2746632663,beverly33@example.net,"882 Black Brooks Suite 208, Gainesville, FL",29.649033,-82.389675,"Counseling,Financial,Clothing,Shelter,Alerts,Job Aid,Temporary Shelter"
Brown PLC,5952411341x788,briannawilliams@example.com,"30314 Elliott Shores, Gainesville, FL",29.651917,-82.38023,"Cash Aid,Health Kits,Equipment,Rebuild,Pet Care,Translation"
"Lopez, Howard and Garcia",3519904417,acook@example.org,"911 Olson Row Suite 112, Gainesville, FL",29.656312,-82.392667,"Financial,Job Aid,Lost & Found,Housing,Food,Mental Health"
Brady-Rivas,9437950962,lcohen@example.com,"367 Anderson Square Apt. 877, Gainesville, FL",29.661243,-82.372611,"Remapping,Recruitment,Information,Supplies"
"Miller, Johnson and Fields",8936412512,vmeyer@example.net,"1719 Katie Burgs, Gainesville, FL",29.647615,-82.399418,"Recovery,Shelter,Evacuation,Recruitment,School,Hazard Map"
Burns-Fields,568.868.1442x2663,stevensamanda@example.org,"74774 Hawkins Plains, Gainesville, FL",29.668567,-82.381568,"Hygiene,Damage Reports,Health Kits"
Nelson-Alvarez,542.330.2000x52681,mark25@example.org,"0305 Alexander Shores, Gainesville, FL",29.645519,-82.370751,"Health Kits,Language Help,Rebuild,Hazard Map,Alerts,Evacuation"
Newman-Christensen,+15498200188x785,eileencurry@example.com,"28169 Travis Port, Gainesville, FL",29.639327,-82.375463,"Medical,Insurance,Information,First Aid,Needs Assessment"
